
<?xml version="1.0"?>
<markers><marker id_skolky="67" nazev_webovy="91. mate&#x159;sk&#xE1; &#x161;kola Plze&#x148;" ulice="Jesenick&#xE1; 11" mesto="Plze&#x148;" psc="32300" kraj="pl" lat="49.77891540527344" lng="13.37247848510742" tag="rejst&#x159;&#xED;kov&#xE1;" url_page="91-materska-skola-plzen-jesenicka-11-plzen" typ_webovy_1="M&#x11B;stsk&#xE1;" avg_hodnoceni="5.00000000"/><marker id_skolky="76" nazev_webovy="Centrum BAZALKA - Z&#xE1;kladn&#xED; &#x161;kola speci&#xE1;ln&#xED; a Mate&#x159;sk&#xE1; &#x161;kola speci&#xE1;ln&#xED;" ulice="U Jesl&#xED; 198/13" mesto="&#x10C;esk&#xE9; Bud&#x11B;jovice" psc="37001" kraj="jc" lat="48.97721862792969" lng="14.49364376068115" tag="rejst&#x159;&#xED;kov&#xE1;" url_page="centrum-bazalka-zakladni-skola-specialni-a-materska-skola-specialni-u-jesli-198-13-ceske-budejovice" typ_webovy_1="Soukrom&#xE1;" avg_hodnoceni=""/><marker id_skolky="94" nazev_webovy="D&#x11B;tsk&#xE9; integra&#x10D;n&#xED; centrum a mate&#x159;sk&#xE1; &#x161;kola" ulice="Hurbanova 1285" mesto="Praha 4" psc="14200" kraj="ph" lat="50.02416229248047" lng="14.45419692993164" tag="rejst&#x159;&#xED;kov&#xE1;" url_page="detske-integracni-centrum-a-materska-skola-hurbanova-1285-praha-4" typ_webovy_1="Soukrom&#xE1;" avg_hodnoceni="4.41666667"/><marker id_skolky="95" nazev_webovy="D&#x11B;tsk&#xFD; diagnostick&#xFD; &#xFA;stav a SVP Liberec" ulice="U Opatrovny 3" mesto="Liberec" psc="46001" kraj="lb" lat="50.76175308227539" lng="15.05540275573730" tag="rejst&#x159;&#xED;kov&#xE1;" url_page="detsky-diagnosticky-ustav-a-svp-liberec-u-opatrovny-3-liberec" typ_webovy_1="St&#xE1;tn&#xED; M&#x160;MT" avg_hodnoceni=""/><marker id_skolky="96" nazev_webovy="D&#x11B;tsk&#xFD; domov a Mate&#x159;sk&#xE1; &#x161;kola speci&#xE1;ln&#xED;" ulice="Ml&#xE1;de&#x17E;e 1102" mesto="Beroun" psc="26601" kraj="sc" lat="49.95432662963867" lng="14.05029964447021" tag="rejst&#x159;&#xED;kov&#xE1;" url_page="detsky-domov-a-materska-skola-specialni-mladeze-1102-beroun" typ_webovy_1="Ve&#x159;ejn&#xE1;" avg_hodnoceni=""/><marker id_skolky="97" nazev_webovy="D&#x11B;tsk&#xFD; domov a Mate&#x159;sk&#xE1; &#x161;kola" ulice="t&#x159;&#xED;da Masarykova 246" mesto="Broumov" psc="55001" kraj="hk" lat="50.58855056762695" lng="16.32771301269531" tag="rejst&#x159;&#xED;kov&#xE1;" url_page="detsky-domov-a-materska-skola-trida-masarykova-246-broumov" typ_webovy_1="Ve&#x159;ejn&#xE1;" avg_hodnoceni=""/><marker id_skolky="98" nazev_webovy="D&#x11B;tsk&#xFD; domov, Mate&#x159;sk&#xE1; a Z&#xE1;kladn&#xED; &#x161;kola" ulice="Lazy 3695" mesto="Zl&#xED;n" psc="76001" kraj="zl" lat="49.22036361694336" lng="17.67644119262695" tag="rejst&#x159;&#xED;kov&#xE1;" url_page="detsky-domov-materska-a-zakladni-skola-lazy-3695-zlin" typ_webovy_1="Ve&#x159;ejn&#xE1;" avg_hodnoceni=""/><marker id_skolky="99" nazev_webovy="D&#x11B;tsk&#xFD; domov, Mate&#x159;sk&#xE1; a Z&#xE1;kladn&#xED; &#x161;kola" ulice="&#x160;obrova 111" mesto="P&#xED;sek" psc="39701" kraj="jc" lat="49.30418395996094" lng="14.16529941558838" tag="rejst&#x159;&#xED;kov&#xE1;" url_page="detsky-domov-materska-a-zakladni-skola-sobrova-111-pisek" typ_webovy_1="Ve&#x159;ejn&#xE1;" avg_hodnoceni=""/><marker id_skolky="100" nazev_webovy="D&#x11B;tsk&#xFD; domov, Mate&#x159;sk&#xE1; a Z&#xE1;kladn&#xED; &#x161;kola" ulice="" mesto="Krompach 47" psc="47157" kraj="lb" lat="50.82828903198242" lng="14.70244598388672" tag="rejst&#x159;&#xED;kov&#xE1;" url_page="detsky-domov-materska-a-zakladni-skola-krompach-47" typ_webovy_1="Obecn&#xED;" avg_hodnoceni=""/><marker id_skolky="106" nazev_webovy="Fakultn&#xED; mate&#x159;sk&#xE1; &#x161;kola se speci&#xE1;ln&#xED; p&#xE9;&#x10D;&#xED;" ulice="Arabsk&#xE1; 20/681" mesto="Praha 6 - Vokovice" psc="16000" kraj="ph" lat="50.09856414794922" lng="14.35748767852783" tag="rejst&#x159;&#xED;kov&#xE1;" url_page="fakultni-materska-skola-se-specialni-peci-arabska-20-681-praha-6-vokovice" typ_webovy_1="M&#x11B;stsk&#xE1;" avg_hodnoceni="4.66666667"/><marker id_skolky="113" nazev_webovy="Gymn&#xE1;zium, z&#xE1;kladn&#xED; &#x161;kola a Mate&#x159;sk&#xE1; &#x161;kola pro sluchov&#x11B; posti&#x17E;en&#xE9;" ulice="Je&#x10D;n&#xE1; 27/530" mesto="Praha 2" psc="12000" kraj="ph" lat="50.07585906982422" lng="14.42514038085938" tag="rejst&#x159;&#xED;kov&#xE1;" url_page="gymnazium-zakladni-skola-a-materska-skola-pro-sluchove-postizene-jecna-27-530-praha-2" typ_webovy_1="Ve&#x159;ejn&#xE1;" avg_hodnoceni=""/><marker id_skolky="238" nazev_webovy="Mate&#x159;sk&#xE1; &#x161;kola A &amp; T" ulice="U Be&#x10D;vy 2883/2" mesto="P&#x159;erov" psc="75000" kraj="ol" lat="49.45268630981445" lng="17.40899658203125" tag="rejst&#x159;&#xED;kov&#xE1;" url_page="materska-skola-a-t-u-becvy-2883-2-prerov" typ_webovy_1="Soukrom&#xE1;" avg_hodnoceni="4.88888889"/><marker id_skolky="239" nazev_webovy="Mate&#x159;sk&#xE1; &#x161;kola a Speci&#xE1;ln&#x11B; pedagogick&#xE9; centrum Jihlava" ulice="Demlova 28" mesto="Jihlava" psc="58601" kraj="vy" lat="49.40064239501953" lng="15.60919284820557" tag="rejst&#x159;&#xED;kov&#xE1;" url_page="materska-skola-a-specialne-pedagogicke-centrum-jihlava-demlova-28-jihlava" typ_webovy_1="Ve&#x159;ejn&#xE1;" avg_hodnoceni=""/><marker id_skolky="247" nazev_webovy="Mate&#x159;sk&#xE1; &#x161;kola a Z&#xE1;kladn&#xED; &#x161;kola p&#x159;i d&#x11B;tsk&#xE9; l&#xE9;&#x10D;ebn&#x11B;" ulice="" mesto="K&#x159;et&#xED;n 12" psc="67962" kraj="jm" lat="49.56612396240234" lng="16.50943565368652" tag="rejst&#x159;&#xED;kov&#xE1;" url_page="materska-skola-a-zakladni-skola-pri-detske-lecebne-kretin-12" typ_webovy_1="Ve&#x159;ejn&#xE1;" avg_hodnoceni=""/><marker id_skolky="248" nazev_webovy="Mate&#x159;sk&#xE1; &#x161;kola a Z&#xE1;kladn&#xED; &#x161;kola pro sluchov&#x11B; posti&#x17E;en&#xE9;" ulice="Novom&#x11B;stsk&#xE1; 21" mesto="Brno" psc="62100" kraj="jm" lat="49.24214935302734" lng="16.58791160583496" tag="rejst&#x159;&#xED;kov&#xE1;" url_page="materska-skola-a-zakladni-skola-pro-sluchove-postizene-novomestska-21-brno" typ_webovy_1="Ve&#x159;ejn&#xE1;" avg_hodnoceni=""/><marker id_skolky="249" nazev_webovy="Mate&#x159;sk&#xE1; &#x161;kola a Z&#xE1;kladn&#xED; &#x161;kola pro t&#x11B;lesn&#x11B; posti&#x17E;en&#xE9;" ulice="Koci&#xE1;nka 6" mesto="Brno" psc="61200" kraj="jm" lat="49.22620010375977" lng="16.60351562500000" tag="rejst&#x159;&#xED;kov&#xE1;" url_page="materska-skola-a-zakladni-skola-pro-telesne-postizene-kocianka-6-brno" typ_webovy_1="Ve&#x159;ejn&#xE1;" avg_hodnoceni=""/><marker id_skolky="252" nazev_webovy="Mate&#x159;sk&#xE1; &#x161;kola a z&#xE1;kladn&#xED; &#x161;kola speci&#xE1;ln&#xED; Diakonie &#x10C;CE Praha 4" ulice="V Z&#xE1;pol&#xED; 21/1250" mesto="Praha 4 - Michle" psc="14100" kraj="ph" lat="50.04907989501953" lng="14.46734237670898" tag="rejst&#x159;&#xED;kov&#xE1;" url_page="materska-skola-a-zakladni-skola-specialni-diakonie-cce-praha-4-v-zapoli-21-1250-praha-4-michle" typ_webovy_1="Soukrom&#xE1;" avg_hodnoceni=""/><marker id_skolky="253" nazev_webovy="Mate&#x159;sk&#xE1; &#x161;kola a z&#xE1;kladn&#xED; &#x161;kola speci&#xE1;ln&#xED; Diakonie &#x10C;CE Praha 5" ulice="Vlachova 1502" mesto="Praha 5 - Stod&#x16F;lky" psc="15500" kraj="ph" lat="50.04899978637695" lng="14.30952644348145" tag="rejst&#x159;&#xED;kov&#xE1;" url_page="materska-skola-a-zakladni-skola-specialni-diakonie-cce-praha-5-vlachova-1502-praha-5-stodulky" typ_webovy_1="Soukrom&#xE1;" avg_hodnoceni=""/><marker id_skolky="257" nazev_webovy="Mate&#x159;sk&#xE1; &#x161;kola a Z&#xE1;kladn&#xED; &#x161;kola" ulice="Herbenova 4" mesto="B&#x159;eclav" psc="69003" kraj="jm" lat="48.76938247680664" lng="16.88809776306152" tag="rejst&#x159;&#xED;kov&#xE1;" url_page="materska-skola-a-zakladni-skola-herbenova-4-breclav" typ_webovy_1="Ve&#x159;ejn&#xE1;" avg_hodnoceni=""/><marker id_skolky="259" nazev_webovy="Mate&#x159;sk&#xE1; &#x161;kola a Z&#xE1;kladn&#xED; &#x161;kola" ulice="n&#xE1;m&#x11B;st&#xED; B. Martin&#x16F; 5" mesto="Hodon&#xED;n" psc="69503" kraj="jm" lat="48.85757827758789" lng="17.10801696777344" tag="rejst&#x159;&#xED;kov&#xE1;" url_page="materska-skola-a-zakladni-skola-namesti-b-martinu-5-hodonin" typ_webovy_1="Ve&#x159;ejn&#xE1;" avg_hodnoceni=""/><marker id_skolky="260" nazev_webovy="Mate&#x159;sk&#xE1; &#x161;kola a Z&#xE1;kladn&#xED; &#x161;kola" ulice="&#x160;koln&#xED; 3208" mesto="Kyjov" psc="69701" kraj="jm" lat="49.02443695068359" lng="17.12048912048340" tag="rejst&#x159;&#xED;kov&#xE1;" url_page="materska-skola-a-zakladni-skola-skolni-3208-kyjov" typ_webovy_1="Ve&#x159;ejn&#xE1;" avg_hodnoceni=""/><marker id_skolky="262" nazev_webovy="Mate&#x159;sk&#xE1; &#x161;kola a Z&#xE1;kladn&#xED; &#x161;kola" ulice="t&#x159;&#xED;da &#x10C;s. arm&#xE1;dy 925" mesto="T&#xE1;bor" psc="39003" kraj="jc" lat="49.19475936889648" lng="14.71580314636230" tag="rejst&#x159;&#xED;kov&#xE1;" url_page="materska-skola-a-zakladni-skola-trida-cs-armady-925-tabor" typ_webovy_1="Ve&#x159;ejn&#xE1;" avg_hodnoceni=""/><marker id_skolky="692" nazev_webovy="Mate&#x159;sk&#xE1; &#x161;kola Eli&#x161;ka" ulice="Eli&#x161;ky Kr&#xE1;snohorsk&#xE9; 8" mesto="Opava" psc="74601" kraj="ms" lat="49.93022918701172" lng="17.88786697387695" tag="rejst&#x159;&#xED;kov&#xE1;" url_page="materska-skola-eliska-elisky-krasnohorske-8-opava" typ_webovy_1="Ve&#x159;ejn&#xE1;" avg_hodnoceni=""/><marker id_skolky="991" nazev_webovy="Mate&#x159;sk&#xE1; &#x161;kola Kl&#xED;&#x10D;ek" ulice="Einsteinova 2849" mesto="Karvin&#xE1; - Hranice" psc="73301" kraj="ms" lat="49.86643600463867" lng="18.55851745605469" tag="rejst&#x159;&#xED;kov&#xE1;" url_page="materska-skola-klicek-einsteinova-2849-karvina-hranice" typ_webovy_1="Ve&#x159;ejn&#xE1;" avg_hodnoceni=""/><marker id_skolky="1002" nazev_webovy="Mate&#x159;sk&#xE1; &#x161;kola Klub&#xED;&#x10D;ko Tluma&#x10D;ov" ulice="U Trojice 336" mesto="Tluma&#x10D;ov" psc="76362" kraj="zl" lat="49.25797271728516" lng="17.50819587707520" tag="rejst&#x159;&#xED;kov&#xE1;" url_page="materska-skola-klubicko-tlumacov-u-trojice-336-tlumacov" typ_webovy_1="Soukrom&#xE1;" avg_hodnoceni=""/><marker id_skolky="1142" nazev_webovy="Mate&#x159;sk&#xE1; &#x161;kola Laudova se speci&#xE1;ln&#xED;mi t&#x159;&#xED;dami" ulice="Laudova 3/1030" mesto="Praha 6 - &#x158;epy" psc="16300" kraj="ph" lat="50.06560134887695" lng="14.31388950347900" tag="rejst&#x159;&#xED;kov&#xE1;" url_page="materska-skola-laudova-se-specialnimi-tridami-laudova-3-1030-praha-6-repy" typ_webovy_1="M&#x11B;stsk&#xE1;" avg_hodnoceni="5.00000000"/><marker id_skolky="1200" nazev_webovy="Mate&#x159;sk&#xE1; &#x161;kola logopedick&#xE1;" ulice="Na Robinsonce 1646" mesto="Ostrava - Poruba" psc="70800" kraj="ms" lat="49.84650802612305" lng="18.17674827575684" tag="rejst&#x159;&#xED;kov&#xE1;" url_page="materska-skola-logopedicka-na-robinsonce-1646-ostrava-poruba" typ_webovy_1="Ve&#x159;ejn&#xE1;" avg_hodnoceni=""/><marker id_skolky="1201" nazev_webovy="Mate&#x159;sk&#xE1; &#x161;kola logopedick&#xE1;" ulice="U &#x160;kolky 1621" mesto="Ostrava-Poruba" psc="70800" kraj="ms" lat="49.84339523315430" lng="18.18073844909668" tag="rejst&#x159;&#xED;kov&#xE1;" url_page="materska-skola-logopedicka-u-skolky-1621-ostrava-poruba" typ_webovy_1="Ve&#x159;ejn&#xE1;" avg_hodnoceni=""/><marker id_skolky="1305" nazev_webovy="Mate&#x159;sk&#xE1; &#x161;kola Mil&#xED;&#x10D;&#x16F;v d&#x16F;m" ulice="Sauerova 2/1836" mesto="Praha 3" psc="13000" kraj="ph" lat="50.08376312255859" lng="14.46185016632080" tag="rejst&#x159;&#xED;kov&#xE1;" url_page="materska-skola-milicuv-dum-sauerova-2-1836-praha-3" typ_webovy_1="Ve&#x159;ejn&#xE1;" avg_hodnoceni="4.66666667"/><marker id_skolky="1467" nazev_webovy="Mate&#x159;sk&#xE1; &#x161;kola Olomouc" ulice="Blanick&#xE1; 16" mesto="Olomouc" psc="77200" kraj="ol" lat="49.59490966796875" lng="17.27429008483887" tag="rejst&#x159;&#xED;kov&#xE1;" url_page="materska-skola-olomouc-blanicka-16-olomouc" typ_webovy_1="Ve&#x159;ejn&#xE1;" avg_hodnoceni="2.00000000"/><marker id_skolky="1589" nazev_webovy="Mate&#x159;sk&#xE1; &#x161;kola Pastelka" ulice="Horn&#xED; 195" mesto="&#xDA;st&#xED; nad Labem" psc="40331" kraj="ul" lat="50.68112182617188" lng="14.11375713348389" tag="rejst&#x159;&#xED;kov&#xE1;" url_page="materska-skola-pastelka-horni-195-usti-nad-labem" typ_webovy_1="Ve&#x159;ejn&#xE1;" avg_hodnoceni="5.00000000"/><marker id_skolky="1609" nazev_webovy="Mate&#x159;sk&#xE1; &#x161;kola P&#xED;sni&#x10D;ka Krupka" ulice="Dukelsk&#xFD;ch hrdin&#x16F; 295" mesto="Krupka" psc="41742" kraj="ul" lat="50.68677139282227" lng="13.88251495361328" tag="rejst&#x159;&#xED;kov&#xE1;" url_page="materska-skola-pisnicka-krupka-dukelskych-hrdinu-295-krupka" typ_webovy_1="Ve&#x159;ejn&#xE1;" avg_hodnoceni=""/><marker id_skolky="1727" nazev_webovy="Mate&#x159;sk&#xE1; &#x161;kola pro zrakov&#x11B; posti&#x17E;en&#xE9;" ulice="Zachari&#xE1;&#x161;ova 5" mesto="&#x10C;esk&#xE9; Bud&#x11B;jovice" psc="37004" kraj="jc" lat="48.98745727539062" lng="14.46924018859863" tag="rejst&#x159;&#xED;kov&#xE1;" url_page="materska-skola-pro-zrakove-postizene-zachariasova-5-ceske-budejovice" typ_webovy_1="Ve&#x159;ejn&#xE1;" avg_hodnoceni="5.00000000"/><marker id_skolky="1728" nazev_webovy="Mate&#x159;sk&#xE1; &#x161;kola pro zrakov&#x11B; posti&#x17E;en&#xE9;" ulice="Mozartova 2/1092" mesto="Hav&#xED;&#x159;ov - M&#x11B;sto" psc="73601" kraj="ms" lat="49.78152847290039" lng="18.44146537780762" tag="rejst&#x159;&#xED;kov&#xE1;" url_page="materska-skola-pro-zrakove-postizene-mozartova-2-1092-havirov-mesto" typ_webovy_1="Ve&#x159;ejn&#xE1;" avg_hodnoceni=""/><marker id_skolky="1849" nazev_webovy="Mate&#x159;sk&#xE1; &#x161;kola se speci&#xE1;ln&#xED; t&#x159;&#xED;dou Bohum&#xED;n" ulice="Nerudova 1040" mesto="Bohum&#xED;n - Nov&#xFD; Bohum&#xED;n" psc="73581" kraj="ms" lat="49.90691375732422" lng="18.35281372070312" tag="rejst&#x159;&#xED;kov&#xE1;" url_page="materska-skola-se-specialni-tridou-bohumin-nerudova-1040-bohumin-novy-bohumin" typ_webovy_1="Ve&#x159;ejn&#xE1;" avg_hodnoceni="5.00000000"/><marker id_skolky="1850" nazev_webovy="Mate&#x159;sk&#xE1; &#x161;kola se speci&#xE1;ln&#xED; t&#x159;&#xED;dou pro d&#x11B;ti s vadami &#x159;e&#x10D;i Pacov" ulice="Za Branou 870" mesto="Pacov" psc="39501" kraj="vy" lat="49.47677230834961" lng="15.00375366210938" tag="rejst&#x159;&#xED;kov&#xE1;" url_page="materska-skola-se-specialni-tridou-pro-deti-s-vadami-reci-pacov-za-branou-870-pacov" typ_webovy_1="Ve&#x159;ejn&#xE1;" avg_hodnoceni=""/><marker id_skolky="1851" nazev_webovy="Mate&#x159;sk&#xE1; &#x161;kola se speci&#xE1;ln&#xED; t&#x159;&#xED;dou pro d&#x11B;ti s vadami &#x159;e&#x10D;i" ulice="&#x160;vermova 11/666" mesto="Brno" psc="62500" kraj="jm" lat="49.16762924194336" lng="16.57079124450684" tag="rejst&#x159;&#xED;kov&#xE1;" url_page="materska-skola-se-specialni-tridou-pro-deti-s-vadami-reci-svermova-11-666-brno" typ_webovy_1="Ve&#x159;ejn&#xE1;" avg_hodnoceni="4.33333333"/><marker id_skolky="1852" nazev_webovy="Mate&#x159;sk&#xE1; &#x161;kola se speci&#xE1;ln&#xED;mi t&#x159;&#xED;dami Duha" ulice="Trojd&#xED;ln&#xE1; 18/1117" mesto="Praha 5 - Ko&#x161;&#xED;&#x159;e" psc="15000" kraj="ph" lat="50.06660461425781" lng="14.35943317413330" tag="rejst&#x159;&#xED;kov&#xE1;" url_page="materska-skola-se-specialnimi-tridami-duha-trojdilna-18-1117-praha-5-kosire" typ_webovy_1="Ve&#x159;ejn&#xE1;" avg_hodnoceni=""/><marker id_skolky="1853" nazev_webovy="Mate&#x159;sk&#xE1; &#x161;kola se speci&#xE1;ln&#xED;mi t&#x159;&#xED;dami Kamenice nad Lipou" ulice="Na Bes&#xED;dce 632" mesto="Kamenice nad Lipou" psc="39470" kraj="vy" lat="49.30075836181641" lng="15.07115745544434" tag="rejst&#x159;&#xED;kov&#xE1;" url_page="materska-skola-se-specialnimi-tridami-kamenice-nad-lipou-na-besidce-632-kamenice-nad-lipou" typ_webovy_1="Ve&#x159;ejn&#xE1;" avg_hodnoceni="5.00000000"/><marker id_skolky="1857" nazev_webovy="Mate&#x159;sk&#xE1; &#x161;kola se zdravotnickou p&#xE9;&#x10D;&#xED;" ulice="Ke Splavu 1568" mesto="Fr&#xFD;dek-M&#xED;stek" psc="73802" kraj="ms" lat="49.66866683959961" lng="18.35636901855469" tag="rejst&#x159;&#xED;kov&#xE1;" url_page="materska-skola-se-zdravotnickou-peci-ke-splavu-1568-frydek-mistek" typ_webovy_1="Soukrom&#xE1;" avg_hodnoceni=""/><marker id_skolky="1880" nazev_webovy="Mate&#x159;sk&#xE1; &#x161;kola Dome&#x10D;ek" ulice="S&#xED;dli&#x161;t&#x11B; 429" mesto="Tou&#x17E;im" psc="36401" kraj="kv" lat="50.06169128417969" lng="12.98537445068359" tag="rejst&#x159;&#xED;kov&#xE1;" url_page="materska-skola-domecek-sidliste-429-touzim" typ_webovy_1="Ve&#x159;ejn&#xE1;" avg_hodnoceni=""/><marker id_skolky="1962" nazev_webovy="Mate&#x159;sk&#xE1; &#x161;kola Sovi&#x10D;ka" ulice="Anton&#xED;na Sovy 1740" mesto="&#x10C;esk&#xE1; L&#xED;pa" psc="47001" kraj="lb" lat="50.69181823730469" lng="14.52591896057129" tag="rejst&#x159;&#xED;kov&#xE1;" url_page="materska-skola-sovicka-antonina-sovy-1740-ceska-lipa" typ_webovy_1="M&#x11B;stsk&#xE1;" avg_hodnoceni="5.00000000"/><marker id_skolky="1963" nazev_webovy="Mate&#x159;sk&#xE1; &#x161;kola speci&#xE1;ln&#xED; Jablonec nad Nisou" ulice="Palack&#xE9;ho 37/2482" mesto="Jablonec nad Nisou" psc="46601" kraj="lb" lat="50.73185729980469" lng="15.16890811920166" tag="rejst&#x159;&#xED;kov&#xE1;" url_page="materska-skola-specialni-jablonec-nad-nisou-palackeho-37-2482-jablonec-nad-nisou" typ_webovy_1="M&#x11B;stsk&#xE1;" avg_hodnoceni=""/><marker id_skolky="1964" nazev_webovy="Mate&#x159;sk&#xE1; &#x161;kola speci&#xE1;ln&#xED; Kladno" ulice="Moskevsk&#xE1; 3083" mesto="Kladno" psc="27204" kraj="sc" lat="50.13866424560547" lng="14.07447910308838" tag="rejst&#x159;&#xED;kov&#xE1;" url_page="materska-skola-specialni-kladno-moskevska-3083-kladno" typ_webovy_1="Ve&#x159;ejn&#xE1;" avg_hodnoceni=""/><marker id_skolky="1965" nazev_webovy="Mate&#x159;sk&#xE1; &#x161;kola speci&#xE1;ln&#xED; Louny" ulice="&#x160;koln&#xED; 2428" mesto="Louny" psc="44001" kraj="ul" lat="50.35042572021484" lng="13.80114555358887" tag="rejst&#x159;&#xED;kov&#xE1;" url_page="materska-skola-specialni-louny-skolni-2428-louny" typ_webovy_1="Ve&#x159;ejn&#xE1;" avg_hodnoceni=""/><marker id_skolky="1966" nazev_webovy="Mate&#x159;sk&#xE1; &#x161;kola speci&#xE1;ln&#xED; Semily" ulice="Na Ole&#x161;ce 433" mesto="Semily" psc="51301" kraj="lb" lat="50.59972381591797" lng="15.32874298095703" tag="rejst&#x159;&#xED;kov&#xE1;" url_page="materska-skola-specialni-semily-na-olesce-433-semily" typ_webovy_1="M&#x11B;stsk&#xE1;" avg_hodnoceni=""/><marker id_skolky="1967" nazev_webovy="Mate&#x159;sk&#xE1; &#x161;kola speci&#xE1;ln&#xED; Slun&#xED;&#x10D;ko" ulice="Deylova 3" mesto="Praha 5" psc="15000" kraj="ph" lat="50.07189178466797" lng="14.34868335723877" tag="rejst&#x159;&#xED;kov&#xE1;" url_page="materska-skola-specialni-slunicko-deylova-3-praha-5" typ_webovy_1="Ve&#x159;ejn&#xE1;" avg_hodnoceni="1.00000000"/><marker id_skolky="1968" nazev_webovy="Speci&#xE1;ln&#xED; mate&#x159;sk&#xE1; &#x161;kola Demonstrenes" ulice="M&#xED;rov&#xE1; 2820/2" mesto="&#xDA;st&#xED; nad Labem" psc="40011" kraj="ul" lat="50.68309783935547" lng="14.03146076202393" tag="rejst&#x159;&#xED;kov&#xE1;" url_page="specialni-materska-skola-demonstrenes-mirova-2820-2-usti-nad-labem" typ_webovy_1="Soukrom&#xE1;" avg_hodnoceni=""/><marker id_skolky="1969" nazev_webovy="Mate&#x159;sk&#xE1; &#x161;kola speci&#xE1;ln&#xED;" ulice="&#x160;milovsk&#xE9;ho 543" mesto="Mlad&#xE1; Boleslav" psc="29301" kraj="sc" lat="50.41505050659180" lng="14.91499137878418" tag="rejst&#x159;&#xED;kov&#xE1;" url_page="materska-skola-specialni-smilovskeho-543-mlada-boleslav" typ_webovy_1="Ve&#x159;ejn&#xE1;" avg_hodnoceni=""/><marker id_skolky="1970" nazev_webovy="Mate&#x159;sk&#xE1; &#x161;kola speci&#xE1;ln&#xED;" ulice="Na Lysin&#xE1;ch 6/41" mesto="Praha 4" psc="14700" kraj="ph" lat="50.02048873901367" lng="14.40911006927490" tag="rejst&#x159;&#xED;kov&#xE1;" url_page="materska-skola-specialni-na-lysinach-6-41-praha-4" typ_webovy_1="Ve&#x159;ejn&#xE1;" avg_hodnoceni=""/><marker id_skolky="1971" nazev_webovy="Mate&#x159;sk&#xE1; &#x161;kola speci&#xE1;ln&#xED; - Draha&#x148;sk&#xE1;" ulice="Draha&#x148;sk&#xE1; 7" mesto="Praha 8" psc="18100" kraj="ph" lat="50.14347839355469" lng="14.42590045928955" tag="rejst&#x159;&#xED;kov&#xE1;" url_page="materska-skola-specialni-drahanska-drahanska-7-praha-8" typ_webovy_1="Ve&#x159;ejn&#xE1;" avg_hodnoceni=""/><marker id_skolky="1972" nazev_webovy="Mate&#x159;sk&#xE1; &#x161;kola speci&#xE1;ln&#xED;" ulice="&#x160;t&#xED;brova 1691" mesto="Praha 8" psc="18200" kraj="ph" lat="50.12732696533203" lng="14.46290302276611" tag="rejst&#x159;&#xED;kov&#xE1;" url_page="materska-skola-specialni-stibrova-1691-praha-8" typ_webovy_1="Ve&#x159;ejn&#xE1;" avg_hodnoceni=""/><marker id_skolky="1973" nazev_webovy="Mate&#x159;sk&#xE1; &#x161;kola speci&#xE1;ln&#xED;" ulice="Hradebn&#xED; 67" mesto="P&#x159;&#xED;bram I" psc="26101" kraj="sc" lat="49.69086074829102" lng="14.00928306579590" tag="rejst&#x159;&#xED;kov&#xE1;" url_page="materska-skola-specialni-hradebni-67-pribram-i" typ_webovy_1="Ve&#x159;ejn&#xE1;" avg_hodnoceni=""/><marker id_skolky="1974" nazev_webovy="Mate&#x159;sk&#xE1; &#x161;kola speci&#xE1;ln&#xED;" ulice="Petra Hrub&#xE9;ho 1676" mesto="Slan&#xFD;" psc="27401" kraj="sc" lat="50.23354339599609" lng="14.07166194915771" tag="rejst&#x159;&#xED;kov&#xE1;" url_page="materska-skola-specialni-petra-hrubeho-1676-slany" typ_webovy_1="Ve&#x159;ejn&#xE1;" avg_hodnoceni="5.00000000"/><marker id_skolky="1975" nazev_webovy="Mate&#x159;sk&#xE1; &#x161;kola speci&#xE1;ln&#xED;" ulice="Na Struze 124" mesto="Trutnov" psc="54101" kraj="hk" lat="50.55940628051758" lng="15.91333770751953" tag="rejst&#x159;&#xED;kov&#xE1;" url_page="materska-skola-specialni-na-struze-124-trutnov" typ_webovy_1="Ve&#x159;ejn&#xE1;" avg_hodnoceni=""/><marker id_skolky="1976" nazev_webovy="Mate&#x159;sk&#xE1; &#x161;kola Zdrav&#xED;&#x10D;ko" ulice="Mal&#xE1;tova 12" mesto="&#xDA;st&#xED; nad Labem" psc="40011" kraj="ul" lat="50.67100906372070" lng="14.03987312316895" tag="rejst&#x159;&#xED;kov&#xE1;" url_page="materska-skola-zdravicko-malatova-12-usti-nad-labem" typ_webovy_1="Ve&#x159;ejn&#xE1;" avg_hodnoceni=""/><marker id_skolky="1977" nazev_webovy="Mate&#x159;sk&#xE1; &#x161;kola speci&#xE1;ln&#xED; Dome&#x10D;ek" ulice="&#x160;tef&#xE1;nikova 761/14" mesto="&#xDA;st&#xED; nad Labem" psc="40001" kraj="ul" lat="50.66949081420898" lng="14.01677227020264" tag="rejst&#x159;&#xED;kov&#xE1;" url_page="materska-skola-specialni-domecek-stefanikova-761-14-usti-nad-labem" typ_webovy_1="Ve&#x159;ejn&#xE1;" avg_hodnoceni=""/><marker id_skolky="1978" nazev_webovy="Mate&#x159;sk&#xE1; &#x161;kola speci&#xE1;ln&#xED;" ulice="Litv&#xED;novsk&#xE1; 300/7" mesto="Praha 9 - St&#x159;&#xED;&#x17E;kov" psc="19000" kraj="ph" lat="50.12235260009766" lng="14.48664093017578" tag="rejst&#x159;&#xED;kov&#xE1;" url_page="materska-skola-specialni-litvinovska-300-7-praha-9-strizkov" typ_webovy_1="Ve&#x159;ejn&#xE1;" avg_hodnoceni="4.66666667"/><marker id_skolky="1979" nazev_webovy="Mate&#x159;sk&#xE1; &#x161;kola speci&#xE1;ln&#xED;, z&#xE1;kladn&#xED; &#x161;kola speci&#xE1;ln&#xED; a Praktick&#xE1; &#x161;kola ELPIS" ulice="Kopern&#xED;kova 2/4" mesto="Brno" psc="61500" kraj="jm" lat="49.20233154296875" lng="16.63872146606445" tag="rejst&#x159;&#xED;kov&#xE1;" url_page="materska-skola-specialni-zakladni-skola-specialni-a-prakticka-skola-elpis-kopernikova-2-4-brno" typ_webovy_1="Ve&#x159;ejn&#xE1;" avg_hodnoceni=""/><marker id_skolky="1981" nazev_webovy="Mate&#x159;sk&#xE1; &#x161;kola speci&#xE1;ln&#xED;" ulice="Studentsk&#xE1; 1416" mesto="&#x17D;atec" psc="43801" kraj="ul" lat="50.32238006591797" lng="13.55027294158936" tag="rejst&#x159;&#xED;kov&#xE1;" url_page="materska-skola-specialni-studentska-1416-zatec" typ_webovy_1="Ve&#x159;ejn&#xE1;" avg_hodnoceni=""/><marker id_skolky="2342" nazev_webovy="Mate&#x159;sk&#xE1; &#x161;kola V&#xED;ska se speci&#xE1;ln&#xED; t&#x159;&#xED;dou" ulice="V&#xED;ska 50" mesto="Chot&#x11B;bo&#x159;" psc="58301" kraj="vy" lat="49.77081680297852" lng="15.65568256378174" tag="rejst&#x159;&#xED;kov&#xE1;" url_page="materska-skola-viska-se-specialni-tridou-viska-50-chotebor" typ_webovy_1="Ve&#x159;ejn&#xE1;" avg_hodnoceni=""/><marker id_skolky="2565" nazev_webovy="Mate&#x159;sk&#xE1; &#x161;kola" ulice="Svatopluka &#x10C;echa 345" mesto="Chrudim 3" psc="53701" kraj="pb" lat="49.94764328002930" lng="15.79499340057373" tag="rejst&#x159;&#xED;kov&#xE1;" url_page="materska-skola-svatopluka-cecha-345-chrudim-3" typ_webovy_1="Ve&#x159;ejn&#xE1;" avg_hodnoceni="5.00000000"/><marker id_skolky="2607" nazev_webovy="Mate&#x159;sk&#xE1; &#x161;kola" ulice="S&#xED;dli&#x161;tn&#xED; 3969/2" mesto="Hodon&#xED;n" psc="69504" kraj="jm" lat="48.86093521118164" lng="17.13503456115723" tag="rejst&#x159;&#xED;kov&#xE1;" url_page="materska-skola-sidlistni-3969-2-hodonin" typ_webovy_1="Ve&#x159;ejn&#xE1;" avg_hodnoceni=""/><marker id_skolky="2649" nazev_webovy="Mate&#x159;sk&#xE1; &#x161;kola" ulice="Karla &#x10C;apka 12a" mesto="Krnov" psc="79401" kraj="ms" lat="50.08903121948242" lng="17.68755531311035" tag="rejst&#x159;&#xED;kov&#xE1;" url_page="materska-skola-karla-capka-12a-krnov" typ_webovy_1="Ve&#x159;ejn&#xE1;" avg_hodnoceni=""/><marker id_skolky="2806" nazev_webovy="Mate&#x159;sk&#xE1; &#x161;kola" ulice="Bukov&#xE1; 26/2518" mesto="Praha 3" psc="13000" kraj="ph" lat="50.09050750732422" lng="14.49745082855225" tag="rejst&#x159;&#xED;kov&#xE1;" url_page="materska-skola-bukova-26-2518-praha-3" typ_webovy_1="Ve&#x159;ejn&#xE1;" avg_hodnoceni=""/><marker id_skolky="2869" nazev_webovy="Mate&#x159;sk&#xE1; &#x161;kola speci&#xE1;ln&#xED;" ulice="Korycansk&#xE1; 14/395" mesto="Praha 8 - &#x10C;imice" psc="18100" kraj="ph" lat="50.13774490356445" lng="14.43619441986084" tag="rejst&#x159;&#xED;kov&#xE1;" url_page="materska-skola-specialni-korycanska-14-395-praha-8-cimice" typ_webovy_1="Ve&#x159;ejn&#xE1;" avg_hodnoceni="3.00000000"/><marker id_skolky="2915" nazev_webovy="Mate&#x159;sk&#xE1; &#x161;kola Sloupno" ulice="Sloupno 69" mesto="Sloupno" psc="50353" kraj="hk" lat="50.25708007812500" lng="15.50150585174561" tag="rejst&#x159;&#xED;kov&#xE1;" url_page="materska-skola-sloupno-sloupno-69-sloupno" typ_webovy_1="Ve&#x159;ejn&#xE1;" avg_hodnoceni=""/><marker id_skolky="2920" nazev_webovy="Mate&#x159;sk&#xE1; &#x161;kola Slune&#x10D;nice" ulice="Markovick&#xE1; 621/9" mesto="Hradec Kr&#xE1;lov&#xE9;" psc="50003" kraj="hk" lat="50.21840667724609" lng="15.84881591796875" tag="rejst&#x159;&#xED;kov&#xE1;" url_page="materska-skola-slunecnice-markovicka-621-9-hradec-kralove" typ_webovy_1="Ve&#x159;ejn&#xE1;" avg_hodnoceni="4.96666667"/><marker id_skolky="2988" nazev_webovy="Mate&#x159;sk&#xE1; &#x161;kola, z&#xE1;kladn&#xED; &#x161;kola a d&#x11B;tsk&#xFD; domov Ivan&#x10D;ice" ulice="&#x160;irok&#xE1; 42" mesto="Ivan&#x10D;ice" psc="66491" kraj="jm" lat="49.10171127319336" lng="16.36890029907227" tag="rejst&#x159;&#xED;kov&#xE1;" url_page="materska-skola-zakladni-skola-a-detsky-domov-ivancice-siroka-42-ivancice" typ_webovy_1="Ve&#x159;ejn&#xE1;" avg_hodnoceni=""/><marker id_skolky="2989" nazev_webovy="Mate&#x159;sk&#xE1; &#x161;kola,  z&#xE1;kladn&#xED; &#x161;kola a praktick&#xE1; &#x161;kola Daneta" ulice="Uheln&#xE1; 1" mesto="Hradec Kr&#xE1;lov&#xE9;" psc="50003" kraj="hk" lat="50.21515274047852" lng="15.84771156311035" tag="rejst&#x159;&#xED;kov&#xE1;" url_page="materska-skola-zakladni-skola-a-prakticka-skola-daneta-uhelna-1-hradec-kralove" typ_webovy_1="Soukrom&#xE1;" avg_hodnoceni=""/><marker id_skolky="2990" nazev_webovy="Mate&#x159;sk&#xE1; &#x161;kola, z&#xE1;kladn&#xED; &#x161;kola a praktick&#xE1; &#x161;kola p&#x159;i centru ARPIDA" ulice="U Hv&#xED;zdala 9" mesto="&#x10C;esk&#xE9; Bud&#x11B;jovice" psc="37011" kraj="jc" lat="48.99815368652344" lng="14.44440460205078" tag="rejst&#x159;&#xED;kov&#xE1;" url_page="materska-skola-zakladni-skola-a-prakticka-skola-pri-centru-arpida-u-hvizdala-9-ceske-budejovice" typ_webovy_1="Soukrom&#xE1;" avg_hodnoceni="5.00000000"/><marker id_skolky="2991" nazev_webovy="Mate&#x159;sk&#xE1; &#x161;kola, z&#xE1;kladn&#xED; &#x161;kola a praktick&#xE1; &#x161;kola" ulice="&#x160;tef&#xE1;nikova 2" mesto="Boskovice" psc="68001" kraj="jm" lat="49.49476242065430" lng="16.66197204589844" tag="rejst&#x159;&#xED;kov&#xE1;" url_page="materska-skola-zakladni-skola-a-prakticka-skola-stefanikova-2-boskovice" typ_webovy_1="Ve&#x159;ejn&#xE1;" avg_hodnoceni=""/><marker id_skolky="2994" nazev_webovy="Mate&#x159;sk&#xE1; &#x161;kola, z&#xE1;kladn&#xED; &#x161;kola a praktick&#xE1; &#x161;kola" ulice="Nov&#xE9; M&#x11B;sto 228" mesto="Trhov&#xE9; Sviny" psc="37401" kraj="jc" lat="48.83969497680664" lng="14.64129161834717" tag="rejst&#x159;&#xED;kov&#xE1;" url_page="materska-skola-zakladni-skola-a-prakticka-skola-nove-mesto-228-trhove-sviny" typ_webovy_1="Ve&#x159;ejn&#xE1;" avg_hodnoceni=""/><marker id_skolky="2995" nazev_webovy="Mate&#x159;sk&#xE1; &#x161;kola, z&#xE1;kladn&#xED; &#x161;kola a praktick&#xE1; &#x161;kola" ulice="S&#xED;dli&#x161;t&#x11B; Osvobozen&#xED; 681/55" mesto="Vy&#x161;kov" psc="68201" kraj="jm" lat="49.28266906738281" lng="16.98241043090820" tag="rejst&#x159;&#xED;kov&#xE1;" url_page="materska-skola-zakladni-skola-a-prakticka-skola-sidliste-osvobozeni-681-55-vyskov" typ_webovy_1="Ve&#x159;ejn&#xE1;" avg_hodnoceni=""/><marker id_skolky="2997" nazev_webovy="Mate&#x159;sk&#xE1; &#x161;kola, z&#xE1;kladn&#xED; &#x161;kola a st&#x159;edn&#xED; &#x161;kola pro sluchov&#x11B; posti&#x17E;en&#xE9;" ulice="Riegrova 1" mesto="&#x10C;esk&#xE9; Bud&#x11B;jovice" psc="37001" kraj="jc" lat="48.97879028320312" lng="14.47445583343506" tag="rejst&#x159;&#xED;kov&#xE1;" url_page="materska-skola-zakladni-skola-a-stredni-skola-pro-sluchove-postizene-riegrova-1-ceske-budejovice" typ_webovy_1="Ve&#x159;ejn&#xE1;" avg_hodnoceni=""/><marker id_skolky="2998" nazev_webovy="Mate&#x159;sk&#xE1; &#x161;kola, z&#xE1;kladn&#xED; &#x161;kola a st&#x159;edn&#xED; &#x161;kola pro sluchov&#x11B; posti&#x17E;en&#xE9;" ulice="Vset&#xED;nsk&#xE1; 454" mesto="Vala&#x161;sk&#xE9; Mezi&#x159;&#xED;&#x10D;&#xED;" psc="75714" kraj="zl" lat="49.43720626831055" lng="17.98668670654297" tag="rejst&#x159;&#xED;kov&#xE1;" url_page="materska-skola-zakladni-skola-a-stredni-skola-pro-sluchove-postizene-vsetinska-454-valasske-mezirici" typ_webovy_1="Ve&#x159;ejn&#xE1;" avg_hodnoceni=""/><marker id_skolky="2999" nazev_webovy="Mate&#x159;sk&#xE1; &#x161;kola Slezsk&#xE9; diakonie" ulice="Fr&#xFD;deck&#xE1; 34" mesto="&#x10C;esk&#xFD; T&#x11B;&#x161;&#xED;n" psc="73701" kraj="ms" lat="49.74081039428711" lng="18.61337661743164" tag="rejst&#x159;&#xED;kov&#xE1;" url_page="materska-skola-slezske-diakonie-frydecka-34-cesky-tesin" typ_webovy_1="C&#xED;rkevn&#xED;" avg_hodnoceni=""/><marker id_skolky="5998" nazev_webovy="Mate&#x159;sk&#xE1; &#x161;kola speci&#xE1;ln&#xED; Slezsk&#xE9; diakonie" ulice="Nerudova 1041" mesto="Bohum&#xED;n" psc="73581" kraj="ms" lat="49.90714263916016" lng="18.35158157348633" tag="rejst&#x159;&#xED;kov&#xE1;" url_page="materska-skola-specialni-slezske-diakonie-nerudova-1041-bohumin" typ_webovy_1="C&#xED;rkevn&#xED;" avg_hodnoceni=""/><marker id_skolky="3000" nazev_webovy="Mate&#x159;sk&#xE1; &#x161;kola, z&#xE1;kladn&#xED; &#x161;kola speci&#xE1;ln&#xED; a praktick&#xE1; &#x161;kola Diakonie &#x10C;CE Rolni&#x10D;ka Sob&#x11B;slav" ulice="Mr&#xE1;zkova 700" mesto="Sob&#x11B;slav" psc="39201" kraj="jc" lat="49.26372146606445" lng="14.70560455322266" tag="rejst&#x159;&#xED;kov&#xE1;" url_page="materska-skola-zakladni-skola-specialni-a-prakticka-skola-diakonie-cce-rolnicka-sobeslav-mrazkova-700-sobeslav" typ_webovy_1="Soukrom&#xE1;" avg_hodnoceni=""/><marker id_skolky="3020" nazev_webovy="Modr&#xFD; kl&#xED;&#x10D; - z&#xE1;kladn&#xED; &#x161;kola speci&#xE1;ln&#xED; a mate&#x159;sk&#xE1; &#x161;kola speci&#xE1;ln&#xED;" ulice="Smolkova 567/2" mesto="Praha 4 - Kam&#xFD;k" psc="14200" kraj="ph" lat="50.00836944580078" lng="14.44920158386230" tag="rejst&#x159;&#xED;kov&#xE1;" url_page="modry-klic-zakladni-skola-specialni-a-materska-skola-specialni-smolkova-567-2-praha-4-kamyk" typ_webovy_1="Soukrom&#xE1;" avg_hodnoceni=""/><marker id_skolky="3022" nazev_webovy="Odborn&#xE1; &#x161;kola, z&#xE1;kladn&#xED; &#x161;kola a mate&#x159;sk&#xE1; &#x161;kola Zb&#x16F;ch" ulice="V S&#xED;dli&#x161;ti 349" mesto="Zb&#x16F;ch" psc="33022" kraj="pl" lat="49.68326568603516" lng="13.23672103881836" tag="rejst&#x159;&#xED;kov&#xE1;" url_page="odborna-skola-zakladni-skola-a-materska-skola-zbuch-v-sidlisti-349-zbuch" typ_webovy_1="Krajsk&#xE1;" avg_hodnoceni=""/><marker id_skolky="5971" nazev_webovy="Pink Crocodile mate&#x159;sk&#xE1; &#x161;kolka speci&#xE1;ln&#xED;" ulice="Hav&#xED;&#x159;ovsk&#xE1; 476" mesto="Praha 9" psc="19900" kraj="ph" lat="50.13472747802734" lng="14.50798320770264" tag="rejst&#x159;&#xED;kov&#xE1;" url_page="pink-crocodile-materska-skolka-specialni-havirovska-476-praha-9" typ_webovy_1="Soukrom&#xE1;" avg_hodnoceni=""/><marker id_skolky="3051" nazev_webovy="Soukrom&#xE1; mate&#x159;sk&#xE1; &#x161;kola, z&#xE1;kladn&#xED; &#x161;kola a st&#x159;edn&#xED; &#x161;kola Slunce" ulice="Hornick&#xE1; 410" mesto="Stochov" psc="27303" kraj="sc" lat="50.14570236206055" lng="13.95281600952148" tag="rejst&#x159;&#xED;kov&#xE1;" url_page="soukroma-materska-skola-zakladni-skola-a-stredni-skola-slunce-hornicka-410-stochov" typ_webovy_1="Soukrom&#xE1;" avg_hodnoceni=""/><marker id_skolky="3052" nazev_webovy="Soukrom&#xE1; z&#xE1;kladn&#xED; &#x161;kola a mate&#x159;sk&#xE1; &#x161;kola" ulice="Volgogradsk&#xE1; 2/2633" mesto="Ostrava - Z&#xE1;b&#x159;eh" psc="70030" kraj="ms" lat="49.79337310791016" lng="18.22932052612305" tag="rejst&#x159;&#xED;kov&#xE1;" url_page="soukroma-zakladni-skola-a-materska-skola-volgogradska-2-2633-ostrava-zabreh" typ_webovy_1="Soukrom&#xE1;" avg_hodnoceni=""/><marker id_skolky="3054" nazev_webovy="Speci&#xE1;ln&#xED; mate&#x159;sk&#xE1; &#x161;kola Svitavy" ulice="&#x10C;eskoslovensk&#xE9; arm&#xE1;dy 1645/9" mesto="Svitavy" psc="56802" kraj="pb" lat="49.75504684448242" lng="16.46383285522461" tag="rejst&#x159;&#xED;kov&#xE1;" url_page="specialni-materska-skola-svitavy-ceskoslovenske-armady-1645-9-svitavy" typ_webovy_1="Ve&#x159;ejn&#xE1;" avg_hodnoceni=""/><marker id_skolky="3055" nazev_webovy="Speci&#xE1;ln&#xED; mate&#x159;sk&#xE1; &#x161;kola T&#x159;eb&#xED;&#x10D;" ulice="Dru&#x17E;stevn&#xED; 1079" mesto="T&#x159;eb&#xED;&#x10D;" psc="67401" kraj="vy" lat="49.20569610595703" lng="15.87889194488525" tag="rejst&#x159;&#xED;kov&#xE1;" url_page="specialni-materska-skola-trebic-druzstevni-1079-trebic" typ_webovy_1="Ve&#x159;ejn&#xE1;" avg_hodnoceni=""/><marker id_skolky="3057" nazev_webovy="Speci&#xE1;ln&#xED; mate&#x159;sk&#xE1; &#x161;kola, z&#xE1;kladn&#xED; &#x161;kola a praktick&#xE1; &#x161;kola Pardubice" ulice="Kl&#xE1;&#x161;tern&#xED; 52" mesto="Pardubice" psc="53002" kraj="pb" lat="50.03863525390625" lng="15.78058147430420" tag="rejst&#x159;&#xED;kov&#xE1;" url_page="specialni-materska-skola-zakladni-skola-a-prakticka-skola-pardubice-klasterni-52-pardubice" typ_webovy_1="Ve&#x159;ejn&#xE1;" avg_hodnoceni=""/><marker id_skolky="3059" nazev_webovy="Speci&#xE1;ln&#xED; z&#xE1;kladn&#xED; &#x161;kola a mate&#x159;sk&#xE1; &#x161;kola &#xDA;st&#xED; nad Orlic&#xED;" ulice="L&#xE1;ze&#x148;sk&#xE1; 206" mesto="&#xDA;st&#xED; nad Orlic&#xED;" psc="56201" kraj="pb" lat="49.96876144409180" lng="16.39167404174805" tag="rejst&#x159;&#xED;kov&#xE1;" url_page="specialni-zakladni-skola-a-materska-skola-usti-nad-orlici-lazenska-206-usti-nad-orlici" typ_webovy_1="Ve&#x159;ejn&#xE1;" avg_hodnoceni=""/><marker id_skolky="3060" nazev_webovy="Speci&#xE1;ln&#xED; z&#xE1;kladn&#xED; &#x161;kola a Mate&#x159;sk&#xE1; &#x161;kola" ulice="U &#x10C;erven&#xE9;ho kostela 110" mesto="Teplice" psc="41502" kraj="ul" lat="50.65365219116211" lng="13.83889293670654" tag="rejst&#x159;&#xED;kov&#xE1;" url_page="specialni-zakladni-skola-a-materska-skola-u-cerveneho-kostela-110-teplice" typ_webovy_1="Ve&#x159;ejn&#xE1;" avg_hodnoceni=""/><marker id_skolky="3061" nazev_webovy="Speci&#xE1;ln&#xED; z&#xE1;kladn&#xED; &#x161;kola a Mate&#x159;sk&#xE1; &#x161;kola" ulice="Horsk&#xE1; 160" mesto="Trutnov" psc="54102" kraj="hk" lat="50.58860397338867" lng="15.88331222534180" tag="rejst&#x159;&#xED;kov&#xE1;" url_page="specialni-zakladni-skola-a-materska-skola-horska-160-trutnov" typ_webovy_1="Ve&#x159;ejn&#xE1;" avg_hodnoceni=""/><marker id_skolky="3062" nazev_webovy="Speci&#xE1;ln&#xED; z&#xE1;kladn&#xED; &#x161;kola a Mate&#x159;sk&#xE1; &#x161;kola" ulice="T. G. Masaryka 1804" mesto="Varnsdorf" psc="40747" kraj="ul" lat="50.91034698486328" lng="14.62740612030029" tag="rejst&#x159;&#xED;kov&#xE1;" url_page="specialni-zakladni-skola-a-materska-skola-t-g-masaryka-1804-varnsdorf" typ_webovy_1="Ve&#x159;ejn&#xE1;" avg_hodnoceni=""/><marker id_skolky="3063" nazev_webovy="Speci&#xE1;ln&#xED; z&#xE1;kladn&#xED; &#x161;kola a Speci&#xE1;ln&#xED; mate&#x159;sk&#xE1; &#x161;kola" ulice="Teplick&#xE1; 65" mesto="D&#x11B;&#x10D;&#xED;n IX - Bynov" psc="40505" kraj="ul" lat="50.78102874755859" lng="14.14903736114502" tag="rejst&#x159;&#xED;kov&#xE1;" url_page="specialni-zakladni-skola-a-specialni-materska-skola-teplicka-65-decin-ix-bynov" typ_webovy_1="Ve&#x159;ejn&#xE1;" avg_hodnoceni=""/><marker id_skolky="3064" nazev_webovy="Speci&#xE1;ln&#xED; z&#xE1;kladn&#xED; &#x161;kola a Speci&#xE1;ln&#xED; mate&#x159;sk&#xE1; &#x161;kola" ulice="Trnovansk&#xE1; 1331" mesto="Teplice" psc="41501" kraj="ul" lat="50.64891052246094" lng="13.85251998901367" tag="rejst&#x159;&#xED;kov&#xE1;" url_page="specialni-zakladni-skola-a-specialni-materska-skola-trnovanska-1331-teplice" typ_webovy_1="Ve&#x159;ejn&#xE1;" avg_hodnoceni=""/><marker id_skolky="3065" nazev_webovy="Speci&#xE1;ln&#xED; z&#xE1;kladn&#xED; &#x161;kola, mate&#x159;sk&#xE1; &#x161;kola a praktick&#xE1; &#x161;kola Moravsk&#xE1; T&#x159;ebov&#xE1;" ulice="Komensk&#xE9;ho 287" mesto="Moravsk&#xE1; T&#x159;ebov&#xE1;" psc="57101" kraj="pb" lat="49.76012420654297" lng="16.66263580322266" tag="rejst&#x159;&#xED;kov&#xE1;" url_page="specialni-zakladni-skola-materska-skola-a-prakticka-skola-moravska-trebova-komenskeho-287-moravska-trebova" typ_webovy_1="Ve&#x159;ejn&#xE1;" avg_hodnoceni=""/><marker id_skolky="3066" nazev_webovy="Speci&#xE1;ln&#xED; z&#xE1;kladn&#xED; &#x161;kola, mate&#x159;sk&#xE1; &#x161;kola a praktick&#xE1; &#x161;kola" ulice="Pod Parkem 2788" mesto="&#xDA;st&#xED; nad Labem" psc="40011" kraj="ul" lat="50.68056869506836" lng="14.02903175354004" tag="rejst&#x159;&#xED;kov&#xE1;" url_page="specialni-zakladni-skola-materska-skola-a-prakticka-skola-pod-parkem-2788-usti-nad-labem" typ_webovy_1="Ve&#x159;ejn&#xE1;" avg_hodnoceni=""/><marker id_skolky="3068" nazev_webovy="St&#x159;edn&#xED; &#x161;kola, z&#xE1;kladn&#xED; &#x161;kola a mate&#x159;sk&#xE1; &#x161;kola Jistota" ulice="Tet&#xED;n 1/1506" mesto="Prost&#x11B;jov" psc="79601" kraj="ol" lat="49.46649169921875" lng="17.11200714111328" tag="rejst&#x159;&#xED;kov&#xE1;" url_page="stredni-skola-zakladni-skola-a-materska-skola-jistota-tetin-1-1506-prostejov" typ_webovy_1="Soukrom&#xE1;" avg_hodnoceni=""/><marker id_skolky="3070" nazev_webovy="St&#x159;edn&#xED; &#x161;kola, z&#xE1;kladn&#xED; &#x161;kola a mate&#x159;sk&#xE1; &#x161;kola pro sluchov&#x11B; posti&#x17E;en&#xE9;" ulice="Kosmonaut&#x16F; 4" mesto="Olomouc" psc="77200" kraj="ol" lat="49.58908462524414" lng="17.26514053344727" tag="rejst&#x159;&#xED;kov&#xE1;" url_page="stredni-skola-zakladni-skola-a-materska-skola-pro-sluchove-postizene-kosmonautu-4-olomouc" typ_webovy_1="Ve&#x159;ejn&#xE1;" avg_hodnoceni=""/><marker id_skolky="3071" nazev_webovy="St&#x159;edn&#xED; &#x161;kola, z&#xE1;kladn&#xED; &#x161;kola a mate&#x159;sk&#xE1; &#x161;kola pro sluchov&#x11B; posti&#x17E;en&#xE9;" ulice="Hole&#x10D;kova 4" mesto="Praha 5" psc="15000" kraj="ph" lat="50.07600021362305" lng="14.39825153350830" tag="rejst&#x159;&#xED;kov&#xE1;" url_page="stredni-skola-zakladni-skola-a-materska-skola-pro-sluchove-postizene-holeckova-4-praha-5" typ_webovy_1="Ve&#x159;ejn&#xE1;" avg_hodnoceni=""/><marker id_skolky="3072" nazev_webovy="St&#x159;edn&#xED; &#x161;kola, z&#xE1;kladn&#xED; &#x161;kola a mate&#x159;sk&#xE1; &#x161;kola pro sluchov&#x11B; posti&#x17E;en&#xE9;" ulice="V&#xFD;molova 169" mesto="Praha 5" psc="15000" kraj="ph" lat="50.05675888061523" lng="14.39299774169922" tag="rejst&#x159;&#xED;kov&#xE1;" url_page="stredni-skola-zakladni-skola-a-materska-skola-pro-sluchove-postizene-vymolova-169-praha-5" typ_webovy_1="Ve&#x159;ejn&#xE1;" avg_hodnoceni=""/><marker id_skolky="3073" nazev_webovy="St&#x159;edn&#xED; &#x161;kola, z&#xE1;kladn&#xED; &#x161;kola a mate&#x159;sk&#xE1; &#x161;kola pro zrakov&#x11B; posti&#x17E;en&#xE9;" ulice="Kamenoml&#xFD;nsk&#xE1; 2" mesto="Brno" psc="60300" kraj="jm" lat="49.19552993774414" lng="16.57116317749023" tag="rejst&#x159;&#xED;kov&#xE1;" url_page="stredni-skola-zakladni-skola-a-materska-skola-pro-zrakove-postizene-kamenomlynska-2-brno" typ_webovy_1="Ve&#x159;ejn&#xE1;" avg_hodnoceni="5.00000000"/><marker id_skolky="3074" nazev_webovy="Mate&#x159;sk&#xE1; &#x161;kola Prost&#x11B;jov" ulice="Mozartova 30" mesto="Prost&#x11B;jov" psc="79601" kraj="ol" lat="49.46512603759766" lng="17.10950088500977" tag="rejst&#x159;&#xED;kov&#xE1;" url_page="materska-skola-prostejov-mozartova-30-prostejov" typ_webovy_1="Ve&#x159;ejn&#xE1;" avg_hodnoceni=""/><marker id_skolky="3075" nazev_webovy="St&#x159;edn&#xED; &#x161;kola, z&#xE1;kladn&#xED; &#x161;kola a mate&#x159;sk&#xE1; &#x161;kola speci&#xE1;ln&#xED;" ulice="Franti&#x161;ka Diepolta 1576" mesto="Rakovn&#xED;k" psc="26901" kraj="sc" lat="50.09994506835938" lng="13.74149608612061" tag="rejst&#x159;&#xED;kov&#xE1;" url_page="stredni-skola-zakladni-skola-a-materska-skola-specialni-frantiska-diepolta-1576-rakovnik" typ_webovy_1="Krajsk&#xE1;" avg_hodnoceni=""/><marker id_skolky="3076" nazev_webovy="St&#x159;edn&#xED; &#x161;kola, z&#xE1;kladn&#xED; &#x161;kola a mate&#x159;sk&#xE1; &#x161;kola &#x160;umperk" ulice="Han&#xE1;ck&#xE1; 3" mesto="&#x160;umperk" psc="78701" kraj="ol" lat="49.96482086181641" lng="16.96936988830566" tag="rejst&#x159;&#xED;kov&#xE1;" url_page="stredni-skola-zakladni-skola-a-materska-skola-sumperk-hanacka-3-sumperk" typ_webovy_1="Ve&#x159;ejn&#xE1;" avg_hodnoceni=""/><marker id_skolky="3077" nazev_webovy="St&#x159;edn&#xED; &#x161;kola, z&#xE1;kladn&#xED; &#x161;kola a mate&#x159;sk&#xE1; &#x161;kola" ulice="8. p&#x11B;&#x161;&#xED;ho pluku 821" mesto="Fr&#xFD;dek-M&#xED;stek" psc="73802" kraj="ms" lat="49.67797088623047" lng="18.34374809265137" tag="rejst&#x159;&#xED;kov&#xE1;" url_page="stredni-skola-zakladni-skola-a-materska-skola-8-pesiho-pluku-821-frydek-mistek" typ_webovy_1="Ve&#x159;ejn&#xE1;" avg_hodnoceni=""/><marker id_skolky="3078" nazev_webovy="St&#x159;edn&#xED; &#x161;kola, z&#xE1;kladn&#xED; &#x161;kola a mate&#x159;sk&#xE1; &#x161;kola" ulice="&#x160;tef&#xE1;nikova 549/27" mesto="Hradec Kr&#xE1;lov&#xE9;" psc="50011" kraj="hk" lat="50.18409729003906" lng="15.83768749237061" tag="rejst&#x159;&#xED;kov&#xE1;" url_page="stredni-skola-zakladni-skola-a-materska-skola-stefanikova-549-27-hradec-kralove" typ_webovy_1="Ve&#x159;ejn&#xE1;" avg_hodnoceni=""/><marker id_skolky="3080" nazev_webovy="Mate&#x159;sk&#xE1; &#x161;kola a Z&#xE1;kladn&#xED; &#x161;kola p&#x159;i Fakultn&#xED; nemocnici Kr&#xE1;lovsk&#xE9; Vinohrady" ulice="&#x160;rob&#xE1;rova 50" mesto="Praha 10" psc="10000" kraj="ph" lat="50.07624435424805" lng="14.47541427612305" tag="rejst&#x159;&#xED;kov&#xE1;" url_page="materska-skola-a-zakladni-skola-pri-fakultni-nemocnici-kralovske-vinohrady-srobarova-50-praha-10" typ_webovy_1="Ve&#x159;ejn&#xE1;" avg_hodnoceni=""/><marker id_skolky="3084" nazev_webovy="&#x160;kola Jaroslava Je&#x17E;ka - Mate&#x159;sk&#xE1; &#x161;kola pro zrakov&#x11B; posti&#x17E;en&#xE9;" ulice="Loret&#xE1;nsk&#xE1; 17" mesto="Praha 1" psc="11800" kraj="ph" lat="50.08834075927734" lng="14.39276409149170" tag="rejst&#x159;&#xED;kov&#xE1;" url_page="skola-jaroslava-jezka-materska-skola-pro-zrakove-postizene-loretanska-17-praha-1" typ_webovy_1="Ve&#x159;ejn&#xE1;" avg_hodnoceni=""/><marker id_skolky="3093" nazev_webovy="Z&#xE1;kladn&#xED; &#x161;kola a Mate&#x159;sk&#xE1; &#x161;kola - D&#x11B;tsk&#xE9; centrum Hranice" ulice="Struhlovsko 1424" mesto="Hranice" psc="75301" kraj="ol" lat="49.55331420898438" lng="17.72797203063965" tag="rejst&#x159;&#xED;kov&#xE1;" url_page="zakladni-skola-a-materska-skola-detske-centrum-hranice-struhlovsko-1424-hranice" typ_webovy_1="Soukrom&#xE1;" avg_hodnoceni=""/><marker id_skolky="3563" nazev_webovy="Z&#xE1;kladn&#xED; &#x161;kola a Mate&#x159;sk&#xE1; &#x161;kola Josefa Zemana" ulice="Jir&#xE1;skova 461" mesto="N&#xE1;chod" psc="54701" kraj="hk" lat="50.41601562500000" lng="16.15725708007812" tag="rejst&#x159;&#xED;kov&#xE1;" url_page="zakladni-skola-a-materska-skola-josefa-zemana-jiraskova-461-nachod" typ_webovy_1="Ve&#x159;ejn&#xE1;" avg_hodnoceni=""/><marker id_skolky="3747" nazev_webovy="Z&#xE1;kladn&#xED; &#x161;kola a Mate&#x159;sk&#xE1; &#x161;kola logopedick&#xE1; Olomouc" ulice="t&#x159;&#xED;da Svornosti 37/900" mesto="Olomouc" psc="77900" kraj="ol" lat="49.59304046630859" lng="17.23485183715820" tag="rejst&#x159;&#xED;kov&#xE1;" url_page="zakladni-skola-a-materska-skola-logopedicka-olomouc-trida-svornosti-37-900-olomouc" typ_webovy_1="Ve&#x159;ejn&#xE1;" avg_hodnoceni=""/><marker id_skolky="3748" nazev_webovy="Z&#xE1;kladn&#xED; &#x161;kola a mate&#x159;sk&#xE1; &#x161;kola logopedick&#xE1;" ulice="Vesla&#x159;sk&#xE1; 234" mesto="Brno" psc="63700" kraj="jm" lat="49.19646453857422" lng="16.56517219543457" tag="rejst&#x159;&#xED;kov&#xE1;" url_page="zakladni-skola-a-materska-skola-logopedicka-veslarska-234-brno" typ_webovy_1="Ve&#x159;ejn&#xE1;" avg_hodnoceni=""/><marker id_skolky="3830" nazev_webovy="Z&#xE1;kladn&#xED; &#x161;kola a Mate&#x159;sk&#xE1; &#x161;kola Mohelnice" ulice="Masarykova 4" mesto="Mohelnice" psc="78985" kraj="ol" lat="49.77405548095703" lng="16.92062950134277" tag="rejst&#x159;&#xED;kov&#xE1;" url_page="zakladni-skola-a-materska-skola-mohelnice-masarykova-4-mohelnice" typ_webovy_1="Ve&#x159;ejn&#xE1;" avg_hodnoceni=""/><marker id_skolky="3842" nazev_webovy="Z&#xE1;kladn&#xED; &#x161;kola a Mate&#x159;sk&#xE1; &#x161;kola Mot&#xFD;lek" ulice="Smetanova 1122" mesto="Kop&#x159;ivnice" psc="74221" kraj="ms" lat="49.58958435058594" lng="18.14066696166992" tag="rejst&#x159;&#xED;kov&#xE1;" url_page="zakladni-skola-a-materska-skola-motylek-smetanova-1122-koprivnice" typ_webovy_1="Ve&#x159;ejn&#xE1;" avg_hodnoceni=""/><marker id_skolky="3859" nazev_webovy="Z&#xE1;kladn&#xED; &#x161;kola a mate&#x159;sk&#xE1; &#x161;kola Nad&#x11B;je" ulice="&#x160;karabelova 562" mesto="Fr&#xFD;dek-M&#xED;stek" psc="73801" kraj="ms" lat="49.68902969360352" lng="18.34864616394043" tag="rejst&#x159;&#xED;kov&#xE1;" url_page="zakladni-skola-a-materska-skola-nadeje-skarabelova-562-frydek-mistek" typ_webovy_1="Ve&#x159;ejn&#xE1;" avg_hodnoceni=""/><marker id_skolky="4072" nazev_webovy="Z&#xE1;kladn&#xED; &#x161;kola a Mate&#x159;sk&#xE1; &#x161;kola p&#x159;i Fakultn&#xED; nemocnici Olomouc" ulice="I. P. Pavlova 6" mesto="Olomouc" psc="77520" kraj="ol" lat="49.74761962890625" lng="16.86781501770020" tag="rejst&#x159;&#xED;kov&#xE1;" url_page="zakladni-skola-a-materska-skola-pri-fakultni-nemocnici-olomouc-i-p-pavlova-6-olomouc" typ_webovy_1="Ve&#x159;ejn&#xE1;" avg_hodnoceni=""/><marker id_skolky="4073" nazev_webovy="Z&#xE1;kladn&#xED; &#x161;kola a Mate&#x159;sk&#xE1; &#x161;kola p&#x159;i Fakultn&#xED; nemocnici" ulice="Sokolsk&#xE1; 581" mesto="Hradec Kr&#xE1;lov&#xE9;" psc="50005" kraj="hk" lat="50.20042800903320" lng="15.82695388793945" tag="rejst&#x159;&#xED;kov&#xE1;" url_page="zakladni-skola-a-materska-skola-pri-fakultni-nemocnici-sokolska-581-hradec-kralove" typ_webovy_1="Ve&#x159;ejn&#xE1;" avg_hodnoceni=""/><marker id_skolky="4074" nazev_webovy="Z&#xE1;kladn&#xED; &#x161;kola a Mate&#x159;sk&#xE1; &#x161;kola p&#x159;i Fakultn&#xED; nemocnici" ulice="alej Svobody 80" mesto="Plze&#x148;" psc="32300" kraj="pl" lat="49.76232528686523" lng="13.38023757934570" tag="rejst&#x159;&#xED;kov&#xE1;" url_page="zakladni-skola-a-materska-skola-pri-fakultni-nemocnici-alej-svobody-80-plzen" typ_webovy_1="Krajsk&#xE1;" avg_hodnoceni=""/><marker id_skolky="4075" nazev_webovy="Z&#xE1;kladn&#xED; &#x161;kola a Mate&#x159;sk&#xE1; &#x161;kola p&#x159;i FN Motol" ulice="V &#xDA;valu" mesto="Praha 5 - Motol" psc="15500" kraj="ph" lat="50.07311248779297" lng="14.34018325805664" tag="rejst&#x159;&#xED;kov&#xE1;" url_page="zakladni-skola-a-materska-skola-pri-fn-motol-v-uvalu-praha-5-motol" typ_webovy_1="Ve&#x159;ejn&#xE1;" avg_hodnoceni=""/><marker id_skolky="4076" nazev_webovy="Z&#xE1;kladn&#xED; &#x161;kola a Mate&#x159;sk&#xE1; &#x161;kola p&#x159;i Hamzov&#x11B; odborn&#xE9; l&#xE9;&#x10D;ebn&#x11B; pro d&#x11B;ti a dosp&#x11B;l&#xE9; Lu&#x17E;e" ulice="Ko&#x161;umberk 37" mesto="Lu&#x17E;e" psc="53854" kraj="pb" lat="49.90748977661133" lng="16.02431488037109" tag="rejst&#x159;&#xED;kov&#xE1;" url_page="zakladni-skola-a-materska-skola-pri-hamzove-odborne-lecebne-pro-deti-a-dospele-luze-kosumberk-37-luze" typ_webovy_1="Ve&#x159;ejn&#xE1;" avg_hodnoceni=""/><marker id_skolky="4077" nazev_webovy="Z&#xE1;kladn&#xED; &#x161;kola a Mate&#x159;sk&#xE1; &#x161;kola p&#x159;i l&#xE1;zn&#xED;ch" ulice="L&#xE1;ze&#x148;sk&#xE1; 573" mesto="Bludov" psc="78961" kraj="ol" lat="49.94041442871094" lng="16.91044998168945" tag="rejst&#x159;&#xED;kov&#xE1;" url_page="zakladni-skola-a-materska-skola-pri-laznich-lazenska-573-bludov" typ_webovy_1="Ve&#x159;ejn&#xE1;" avg_hodnoceni=""/><marker id_skolky="4078" nazev_webovy="Z&#xE1;kladn&#xED; &#x161;kola a Mate&#x159;sk&#xE1; &#x161;kola p&#x159;i l&#xE1;zn&#xED;ch" ulice="L&#xE1;ze&#x148;sk&#xE1; 240" mesto="Velk&#xE9; Losiny" psc="78815" kraj="ol" lat="50.03316497802734" lng="17.03644943237305" tag="rejst&#x159;&#xED;kov&#xE1;" url_page="zakladni-skola-a-materska-skola-pri-laznich-lazenska-240-velke-losiny" typ_webovy_1="Ve&#x159;ejn&#xE1;" avg_hodnoceni=""/><marker id_skolky="4079" nazev_webovy="Z&#xE1;kladn&#xED; &#x161;kola a Mate&#x159;sk&#xE1; &#x161;kola p&#x159;i L&#xE9;&#x10D;ebn&#x11B; dr. L. Filipa" ulice="n&#xE1;m.T.G.Masaryka 482" mesto="Pod&#x11B;brady" psc="29001" kraj="sc" lat="50.14676666259766" lng="15.11978244781494" tag="rejst&#x159;&#xED;kov&#xE1;" url_page="zakladni-skola-a-materska-skola-pri-lecebne-dr-l-filipa-nam-t-g-masaryka-482-podebrady" typ_webovy_1="Ve&#x159;ejn&#xE1;" avg_hodnoceni=""/><marker id_skolky="4080" nazev_webovy="Z&#xE1;kladn&#xED; &#x161;kola a Mate&#x159;sk&#xE1; &#x161;kola p&#x159;i Nemocnici Na Bulovce" ulice="Bud&#xED;nova 2/67" mesto="Praha 8 - Libe&#x148;" psc="18081" kraj="ph" lat="50.11546325683594" lng="14.46435070037842" tag="rejst&#x159;&#xED;kov&#xE1;" url_page="zakladni-skola-a-materska-skola-pri-nemocnici-na-bulovce-budinova-2-67-praha-8-liben" typ_webovy_1="Ve&#x159;ejn&#xE1;" avg_hodnoceni=""/><marker id_skolky="4081" nazev_webovy="Z&#xE1;kladn&#xED; &#x161;kola a mate&#x159;sk&#xE1; &#x161;kola p&#x159;i nemocnici" ulice="Chomutovsk&#xE1; 1289" mesto="Kada&#x148;" psc="43201" kraj="ul" lat="50.38854598999023" lng="13.27294349670410" tag="rejst&#x159;&#xED;kov&#xE1;" url_page="zakladni-skola-a-materska-skola-pri-nemocnici-chomutovska-1289-kadan" typ_webovy_1="Ve&#x159;ejn&#xE1;" avg_hodnoceni=""/><marker id_skolky="4082" nazev_webovy="Z&#xE1;kladn&#xED; &#x161;kola a Mate&#x159;sk&#xE1; &#x161;kola p&#x159;i nemocnici" ulice="Husova 357/10" mesto="Liberec" psc="46001" kraj="lb" lat="50.77069854736328" lng="15.06367778778076" tag="rejst&#x159;&#xED;kov&#xE1;" url_page="zakladni-skola-a-materska-skola-pri-nemocnici-husova-357-10-liberec" typ_webovy_1="Krajsk&#xE1;" avg_hodnoceni=""/><marker id_skolky="4083" nazev_webovy="Z&#xE1;kladn&#xED; &#x161;kola a Mate&#x159;sk&#xE1; &#x161;kola p&#x159;i o. p. s. Olivov&#x11B; d&#x11B;tsk&#xE9; l&#xE9;&#x10D;ebn&#x11B;" ulice="Olivova 224" mesto="&#x158;&#xED;&#x10D;any" psc="25101" kraj="sc" lat="49.99030685424805" lng="14.68950271606445" tag="rejst&#x159;&#xED;kov&#xE1;" url_page="zakladni-skola-a-materska-skola-pri-o-p-s-olivove-detske-lecebne-olivova-224-ricany" typ_webovy_1="Ve&#x159;ejn&#xE1;" avg_hodnoceni=""/><marker id_skolky="4084" nazev_webovy="Z&#xE1;kladn&#xED; &#x161;kola a Mate&#x159;sk&#xE1; &#x161;kola p&#x159;i Priessnitzov&#xFD;ch l&#xE9;&#x10D;ebn&#xFD;ch l&#xE1;zn&#xED;ch a.s." ulice="Kalvodova 360" mesto="Jesen&#xED;k" psc="79003" kraj="ol" lat="50.23503494262695" lng="17.18567466735840" tag="rejst&#x159;&#xED;kov&#xE1;" url_page="zakladni-skola-a-materska-skola-pri-priessnitzovych-lecebnych-laznich-a-s-kalvodova-360-jesenik" typ_webovy_1="Ve&#x159;ejn&#xE1;" avg_hodnoceni=""/><marker id_skolky="4085" nazev_webovy="Z&#xE1;kladn&#xED; &#x161;kola a Mate&#x159;sk&#xE1; &#x161;kola p&#x159;i Sanatoriu Edel Zlat&#xE9; Hory" ulice="L&#xE1;ze&#x148;sk&#xE1; 491" mesto="Zlat&#xE9; Hory" psc="79376" kraj="ol" lat="50.25214004516602" lng="17.39086341857910" tag="rejst&#x159;&#xED;kov&#xE1;" url_page="zakladni-skola-a-materska-skola-pri-sanatoriu-edel-zlate-hory-lazenska-491-zlate-hory" typ_webovy_1="Ve&#x159;ejn&#xE1;" avg_hodnoceni=""/><marker id_skolky="4086" nazev_webovy="Z&#xE1;kladn&#xED; &#x161;kola a mate&#x159;sk&#xE1; &#x161;kola p&#x159;i sanatoriu" ulice="Javorn&#xED;k 46" mesto="Stachy" psc="38473" kraj="jc" lat="49.11816024780273" lng="13.64962768554688" tag="rejst&#x159;&#xED;kov&#xE1;" url_page="zakladni-skola-a-materska-skola-pri-sanatoriu-javornik-46-stachy" typ_webovy_1="Soukrom&#xE1;" avg_hodnoceni=""/><marker id_skolky="4087" nazev_webovy="Z&#xE1;kladn&#xED; &#x161;kola a Mate&#x159;sk&#xE1; &#x161;kola p&#x159;i Thomayerov&#x11B; nemocnici" ulice="V&#xED;de&#x148;sk&#xE1; 800" mesto="Praha 4 - Kr&#x10D;" psc="14000" kraj="ph" lat="50.03725433349609" lng="14.45427131652832" tag="rejst&#x159;&#xED;kov&#xE1;" url_page="zakladni-skola-a-materska-skola-pri-thomayerove-nemocnici-videnska-800-praha-4-krc" typ_webovy_1="Ve&#x159;ejn&#xE1;" avg_hodnoceni=""/><marker id_skolky="4088" nazev_webovy="Z&#xE1;kladn&#xED; &#x161;kola a Mate&#x159;sk&#xE1; &#x161;kola p&#x159;i V&#x161;eobecn&#xE9; fakultn&#xED; nemocnici" ulice="Ke Karlovu 2" mesto="Praha 2" psc="12000" kraj="ph" lat="50.06995391845703" lng="14.42859268188477" tag="rejst&#x159;&#xED;kov&#xE1;" url_page="zakladni-skola-a-materska-skola-pri-vseobecne-fakultni-nemocnici-ke-karlovu-2-praha-2" typ_webovy_1="Ve&#x159;ejn&#xE1;" avg_hodnoceni=""/><marker id_skolky="4089" nazev_webovy="Z&#xE1;kladn&#xED; &#x161;kola a Mate&#x159;sk&#xE1; &#x161;kola p&#x159;i zdravotnick&#xE9;m za&#x159;&#xED;zen&#xED; Krom&#x11B;&#x159;&#xED;&#x17E;" ulice="Havl&#xED;&#x10D;kova 1265" mesto="Krom&#x11B;&#x159;&#xED;&#x17E;" psc="76701" kraj="zl" lat="49.29375839233398" lng="17.37894821166992" tag="rejst&#x159;&#xED;kov&#xE1;" url_page="zakladni-skola-a-materska-skola-pri-zdravotnickem-zarizeni-kromeriz-havlickova-1265-kromeriz" typ_webovy_1="Ve&#x159;ejn&#xE1;" avg_hodnoceni=""/><marker id_skolky="4090" nazev_webovy="Z&#xE1;kladn&#xED; &#x161;kola a mate&#x159;sk&#xE1; &#x161;kola p&#x159;i zdravotnick&#xFD;ch za&#x159;&#xED;zen&#xED;ch Karlovy Vary" ulice="Bezru&#x10D;ova 19" mesto="Karlovy Vary" psc="36066" kraj="kv" lat="50.23364639282227" lng="12.87433815002441" tag="rejst&#x159;&#xED;kov&#xE1;" url_page="zakladni-skola-a-materska-skola-pri-zdravotnickych-zarizenich-karlovy-vary-bezrucova-19-karlovy-vary" typ_webovy_1="Ve&#x159;ejn&#xE1;" avg_hodnoceni=""/><marker id_skolky="4091" nazev_webovy="Mate&#x159;sk&#xE1; &#x161;kola p&#x159;i nemocnici T&#x159;eb&#xED;&#x10D;" ulice="Purky&#x148;ovo n&#xE1;m&#x11B;st&#xED; 134/3" mesto="T&#x159;eb&#xED;&#x10D;" psc="67401" kraj="vy" lat="49.21219635009766" lng="15.88943672180176" tag="rejst&#x159;&#xED;kov&#xE1;" url_page="materska-skola-pri-nemocnici-trebic-purkynovo-namesti-134-3-trebic" typ_webovy_1="Ve&#x159;ejn&#xE1;" avg_hodnoceni=""/><marker id_skolky="4096" nazev_webovy="Z&#xE1;kladn&#xED; &#x161;kola a Mate&#x159;sk&#xE1; &#x161;kola pro sluchov&#x11B; posti&#x17E;en&#xE9; Plze&#x148; - Mohylov&#xE1;" ulice="Mohylov&#xE1; 90" mesto="Plze&#x148;" psc="31200" kraj="pl" lat="49.75204849243164" lng="13.42204380035400" tag="rejst&#x159;&#xED;kov&#xE1;" url_page="zakladni-skola-a-materska-skola-pro-sluchove-postizene-plzen-mohylova-mohylova-90-plzen" typ_webovy_1="Krajsk&#xE1;" avg_hodnoceni=""/><marker id_skolky="4097" nazev_webovy="Z&#xE1;kladn&#xED; &#x161;kola a Mate&#x159;sk&#xE1; &#x161;kola pro t&#x11B;lesn&#x11B; posti&#x17E;en&#xE9;" ulice="Lu&#x17E;ick&#xE1; 920/7" mesto="Liberec" psc="46001" kraj="lb" lat="50.77711868286133" lng="15.05551815032959" tag="rejst&#x159;&#xED;kov&#xE1;" url_page="zakladni-skola-a-materska-skola-pro-telesne-postizene-luzicka-920-7-liberec" typ_webovy_1="Krajsk&#xE1;" avg_hodnoceni=""/><marker id_skolky="4098" nazev_webovy="Mate&#x159;sk&#xE1; &#x161;kola pro zrakov&#x11B; posti&#x17E;en&#xE9; a vady &#x159;e&#x10D;i - Lazaretn&#xED;" ulice="Lazaretn&#xED; 25" mesto="Plze&#x148;" psc="31200" kraj="pl" lat="49.76014709472656" lng="13.41378402709961" tag="rejst&#x159;&#xED;kov&#xE1;" url_page="materska-skola-pro-zrakove-postizene-a-vady-reci-lazaretni-lazaretni-25-plzen" typ_webovy_1="Krajsk&#xE1;" avg_hodnoceni="4.66666667"/><marker id_skolky="4099" nazev_webovy="Z&#xE1;kladn&#xED; &#x161;kola a Mate&#x159;sk&#xE1; &#x161;kola Prointepo" ulice="Hrub&#xED;nova 1458" mesto="Hradec Kr&#xE1;lov&#xE9;" psc="50002" kraj="hk" lat="50.19961166381836" lng="15.81416702270508" tag="rejst&#x159;&#xED;kov&#xE1;" url_page="zakladni-skola-a-materska-skola-prointepo-hrubinova-1458-hradec-kralove" typ_webovy_1="Soukrom&#xE1;" avg_hodnoceni=""/><marker id_skolky="4243" nazev_webovy="Z&#xE1;kladn&#xED; &#x161;kola a Mate&#x159;sk&#xE1; &#x161;kola speci&#xE1;ln&#xED; Krom&#x11B;&#x159;&#xED;&#x17E;" ulice="F. Van&#x10D;ury 3695" mesto="Krom&#x11B;&#x159;&#xED;&#x17E;" psc="76701" kraj="zl" lat="49.30090332031250" lng="17.37742996215820" tag="rejst&#x159;&#xED;kov&#xE1;" url_page="zakladni-skola-a-materska-skola-specialni-kromeriz-f-vancury-3695-kromeriz" typ_webovy_1="Ve&#x159;ejn&#xE1;" avg_hodnoceni=""/><marker id_skolky="4244" nazev_webovy="Z&#xE1;kladn&#xED; &#x161;kola a Mate&#x159;sk&#xE1; &#x161;kola speci&#xE1;ln&#xED; Uhersk&#xE9; Hradi&#x161;t&#x11B;" ulice="&#x160;afa&#x159;&#xED;kova 961" mesto="Uhersk&#xE9; Hradi&#x161;t&#x11B;" psc="68601" kraj="zl" lat="49.06493377685547" lng="17.46340942382812" tag="rejst&#x159;&#xED;kov&#xE1;" url_page="zakladni-skola-a-materska-skola-specialni-uherske-hradiste-safarikova-961-uherske-hradiste" typ_webovy_1="Ve&#x159;ejn&#xE1;" avg_hodnoceni=""/><marker id_skolky="4245" nazev_webovy="Z&#xE1;kladn&#xED; &#x161;kola a Mate&#x159;sk&#xE1; &#x161;kola speci&#xE1;ln&#xED;" ulice="Plze&#x148;sk&#xE1; 90" mesto="Kr&#xE1;l&#x16F;v Dv&#x16F;r" psc="26701" kraj="sc" lat="49.94183731079102" lng="14.02706718444824" tag="rejst&#x159;&#xED;kov&#xE1;" url_page="zakladni-skola-a-materska-skola-specialni-plzenska-90-kraluv-dvur" typ_webovy_1="Ve&#x159;ejn&#xE1;" avg_hodnoceni=""/><marker id_skolky="4663" nazev_webovy="Z&#xE1;kladn&#xED; &#x161;kola a Mate&#x159;sk&#xE1; &#x161;kola" ulice="Kamenn&#xE1; 404/4" mesto="Jablonec nad Nisou" psc="46601" kraj="lb" lat="50.72356796264648" lng="15.17137813568115" tag="rejst&#x159;&#xED;kov&#xE1;" url_page="zakladni-skola-a-materska-skola-kamenna-404-4-jablonec-nad-nisou" typ_webovy_1="Ve&#x159;ejn&#xE1;" avg_hodnoceni=""/><marker id_skolky="4716" nazev_webovy="Z&#xE1;kladn&#xED; &#x161;kola a Mate&#x159;sk&#xE1; &#x161;kola" ulice="Purky&#x148;ova 2138/16" mesto="Nov&#xFD; Ji&#x10D;&#xED;n" psc="74101" kraj="ms" lat="49.58993530273438" lng="18.00676918029785" tag="rejst&#x159;&#xED;kov&#xE1;" url_page="zakladni-skola-a-materska-skola-purkynova-2138-16-novy-jicin" typ_webovy_1="Ve&#x159;ejn&#xE1;" avg_hodnoceni=""/><marker id_skolky="4775" nazev_webovy="Z&#xE1;kladn&#xED; &#x161;kola a Mate&#x159;sk&#xE1; &#x161;kola Strakonice" ulice="Pl&#xE1;nkova 430" mesto="Strakonice" psc="38601" kraj="jc" lat="49.26561355590820" lng="13.90253925323486" tag="rejst&#x159;&#xED;kov&#xE1;" url_page="zakladni-skola-a-materska-skola-strakonice-plankova-430-strakonice" typ_webovy_1="Ve&#x159;ejn&#xE1;" avg_hodnoceni=""/><marker id_skolky="4790" nazev_webovy="Z&#xE1;kladn&#xED; &#x161;kola a Mate&#x159;sk&#xE1; &#x161;kola Tachov" ulice="Slovensk&#xE1; 969" mesto="Tachov" psc="34701" kraj="pl" lat="49.79843139648438" lng="12.63707828521729" tag="rejst&#x159;&#xED;kov&#xE1;" url_page="zakladni-skola-a-materska-skola-tachov-slovenska-969-tachov" typ_webovy_1="Ve&#x159;ejn&#xE1;" avg_hodnoceni=""/><marker id_skolky="4813" nazev_webovy="Z&#xE1;kladn&#xED; &#x161;kola a Mate&#x159;sk&#xE1; &#x161;kola praktick&#xE1;" ulice="Krkono&#x161;sk&#xE1; 230" mesto="Vrchlab&#xED;" psc="54301" kraj="hk" lat="50.63052749633789" lng="15.60609245300293" tag="rejst&#x159;&#xED;kov&#xE1;" url_page="zakladni-skola-a-materska-skola-prakticka-krkonosska-230-vrchlabi" typ_webovy_1="Ve&#x159;ejn&#xE1;" avg_hodnoceni=""/><marker id_skolky="4841" nazev_webovy="Z&#xE1;kladn&#xED; &#x161;kola logopedick&#xE1; a Mate&#x159;sk&#xE1; &#x161;kola logopedick&#xE1;" ulice="Choustn&#xED;kovo Hradi&#x161;t&#x11B; 161" mesto="Choustn&#xED;kovo Hradi&#x161;t&#x11B;" psc="54442" kraj="hk" lat="50.42171096801758" lng="15.88015842437744" tag="rejst&#x159;&#xED;kov&#xE1;" url_page="zakladni-skola-logopedicka-a-materska-skola-logopedicka-choustnikovo-hradiste-161-choustnikovo-hradiste" typ_webovy_1="Ve&#x159;ejn&#xE1;" avg_hodnoceni=""/><marker id_skolky="4842" nazev_webovy="Z&#xE1;kladn&#xED; &#x161;kola logopedick&#xE1; a Mate&#x159;sk&#xE1; &#x161;kola logopedick&#xE1;" ulice="Sasankov&#xE1; 2903/12" mesto="Praha 10 - Z&#xE1;b&#x11B;hlice" psc="10600" kraj="ph" lat="50.05472946166992" lng="14.50861358642578" tag="rejst&#x159;&#xED;kov&#xE1;" url_page="zakladni-skola-logopedicka-a-materska-skola-logopedicka-sasankova-2903-12-praha-10-zabehlice" typ_webovy_1="Ve&#x159;ejn&#xE1;" avg_hodnoceni=""/><marker id_skolky="4850" nazev_webovy="Z&#xE1;kladn&#xED; &#x161;kola praktick&#xE1; a mate&#x159;sk&#xE1; &#x161;kola speci&#xE1;ln&#xED; Pardubice" ulice="A. Krause 2344" mesto="Pardubice" psc="53002" kraj="pb" lat="50.02117156982422" lng="15.75742626190186" tag="rejst&#x159;&#xED;kov&#xE1;" url_page="zakladni-skola-prakticka-a-materska-skola-specialni-pardubice-a-krause-2344-pardubice" typ_webovy_1="Ve&#x159;ejn&#xE1;" avg_hodnoceni=""/><marker id_skolky="4853" nazev_webovy="Z&#xE1;kladn&#xED; &#x161;kola praktick&#xE1;, z&#xE1;kladn&#xED; &#x161;kola speci&#xE1;ln&#xED; a mate&#x159;sk&#xE1; &#x161;kola speci&#xE1;ln&#xED; Kladno" ulice="Pa&#x159;&#xED;&#x17E;sk&#xE1; 2199" mesto="Kladno - Kro&#x10D;ehlavy" psc="27201" kraj="sc" lat="50.13676071166992" lng="14.13453292846680" tag="rejst&#x159;&#xED;kov&#xE1;" url_page="zakladni-skola-prakticka-zakladni-skola-specialni-a-materska-skola-specialni-kladno-parizska-2199-kladno-krocehlavy" typ_webovy_1="Ve&#x159;ejn&#xE1;" avg_hodnoceni=""/><marker id_skolky="4854" nazev_webovy="Z&#xE1;kladn&#xED; &#x161;kola p&#x159;i zdravotnick&#xE9;m za&#x159;&#xED;zen&#xED; a Mate&#x159;sk&#xE1; &#x161;kola p&#x159;i zdravotnick&#xE9;m za&#x159;&#xED;zen&#xED; Klimkovice" ulice="H&#xFD;lov 24" mesto="Klimkovice" psc="74284" kraj="ms" lat="49.80669403076172" lng="18.09832191467285" tag="rejst&#x159;&#xED;kov&#xE1;" url_page="zakladni-skola-pri-zdravotnickem-zarizeni-a-materska-skola-pri-zdravotnickem-zarizeni-klimkovice-hylov-24-klimkovice" typ_webovy_1="Ve&#x159;ejn&#xE1;" avg_hodnoceni=""/><marker id_skolky="4855" nazev_webovy="Z&#xE1;kladn&#xED; &#x161;kola p&#x159;i zdravotnick&#xE9;m za&#x159;&#xED;zen&#xED; a Mate&#x159;sk&#xE1; &#x161;kola p&#x159;i zdravotnick&#xE9;m za&#x159;&#xED;zen&#xED;" ulice="Olomouck&#xE1; 88/305" mesto="Opava" psc="74601" kraj="ms" lat="49.93259429931641" lng="17.87755203247070" tag="rejst&#x159;&#xED;kov&#xE1;" url_page="zakladni-skola-pri-zdravotnickem-zarizeni-a-materska-skola-pri-zdravotnickem-zarizeni-olomoucka-88-305-opava" typ_webovy_1="Ve&#x159;ejn&#xE1;" avg_hodnoceni="1.33333333"/><marker id_skolky="4856" nazev_webovy="Z&#xE1;kladn&#xED; &#x161;kola pro sluchov&#x11B; posti&#x17E;en&#xE9; a Mate&#x159;sk&#xE1; &#x161;kola pro sluchov&#x11B; posti&#x17E;en&#xE9; Ostrava-Poruba" ulice="Spartakovc&#x16F; 1153" mesto="Ostrava-Poruba" psc="70800" kraj="ms" lat="49.83238601684570" lng="18.18089294433594" tag="rejst&#x159;&#xED;kov&#xE1;" url_page="zakladni-skola-pro-sluchove-postizene-a-materska-skola-pro-sluchove-postizene-ostrava-poruba-spartakovcu-1153-ostrava-poruba" typ_webovy_1="Ve&#x159;ejn&#xE1;" avg_hodnoceni=""/><marker id_skolky="4857" nazev_webovy="Z&#xE1;kladn&#xED; &#x161;kola pro &#x17E;&#xE1;ky se specifick&#xFD;mi poruchami u&#x10D;en&#xED; a mate&#x159;sk&#xE1; &#x161;kola logopedick&#xE1; Schola Viva" ulice="Erbenova 16" mesto="&#x160;umperk" psc="78701" kraj="ol" lat="49.96944427490234" lng="16.96776008605957" tag="rejst&#x159;&#xED;kov&#xE1;" url_page="zakladni-skola-pro-zaky-se-specifickymi-poruchami-uceni-a-materska-skola-logopedicka-schola-viva-erbenova-16-sumperk" typ_webovy_1="Soukrom&#xE1;" avg_hodnoceni=""/><marker id_skolky="4865" nazev_webovy="Z&#xE1;kladn&#xED; &#x161;kola speci&#xE1;ln&#xED; a mate&#x159;sk&#xE1; &#x161;kola speci&#xE1;ln&#xED; Jilemnice" ulice="Roztock&#xE1; 994" mesto="Jilemnice" psc="51401" kraj="lb" lat="50.60225677490234" lng="15.51175117492676" tag="rejst&#x159;&#xED;kov&#xE1;" url_page="zakladni-skola-specialni-a-materska-skola-specialni-jilemnice-roztocka-994-jilemnice" typ_webovy_1="Ve&#x159;ejn&#xE1;" avg_hodnoceni=""/><marker id_skolky="4866" nazev_webovy="Z&#xE1;kladn&#xED; &#x161;kola speci&#xE1;ln&#xED; a Mate&#x159;sk&#xE1; &#x161;kola speci&#xE1;ln&#xED;" ulice="Komensk&#xE9;ho 64/509" mesto="Nov&#xFD; Ji&#x10D;&#xED;n" psc="74101" kraj="ms" lat="49.59635162353516" lng="18.01711845397949" tag="rejst&#x159;&#xED;kov&#xE1;" url_page="zakladni-skola-specialni-a-materska-skola-specialni-komenskeho-64-509-novy-jicin" typ_webovy_1="Ve&#x159;ejn&#xE1;" avg_hodnoceni=""/><marker id_skolky="4867" nazev_webovy="Z&#xE1;kladn&#xED; &#x161;kola speci&#xE1;ln&#xED; a mate&#x159;sk&#xE1; &#x161;kola speci&#xE1;ln&#xED;" ulice="Kosmonaut&#x16F; 1641" mesto="Turnov" psc="51101" kraj="lb" lat="50.58877563476562" lng="15.14208316802979" tag="rejst&#x159;&#xED;kov&#xE1;" url_page="zakladni-skola-specialni-a-materska-skola-specialni-kosmonautu-1641-turnov" typ_webovy_1="Ve&#x159;ejn&#xE1;" avg_hodnoceni=""/><marker id_skolky="4868" nazev_webovy="Z&#xE1;kladn&#xED; &#x161;kola speci&#xE1;ln&#xED; a Mate&#x159;sk&#xE1; &#x161;kola" ulice="Palachova 4881" mesto="Chomutov" psc="43003" kraj="ul" lat="50.46224594116211" lng="13.39864253997803" tag="rejst&#x159;&#xED;kov&#xE1;" url_page="zakladni-skola-specialni-a-materska-skola-palachova-4881-chomutov" typ_webovy_1="Ve&#x159;ejn&#xE1;" avg_hodnoceni="5.00000000"/><marker id_skolky="4883" nazev_webovy="Z&#xE1;kladn&#xED; &#x161;kola, mate&#x159;sk&#xE1; &#x161;kola a praktick&#xE1; &#x161;kola Karlovy Vary" ulice="Van&#x10D;urova 83" mesto="Karlovy Vary" psc="36017" kraj="kv" lat="50.24803924560547" lng="12.83938789367676" tag="rejst&#x159;&#xED;kov&#xE1;" url_page="zakladni-skola-materska-skola-a-prakticka-skola-karlovy-vary-vancurova-83-karlovy-vary" typ_webovy_1="Ve&#x159;ejn&#xE1;" avg_hodnoceni=""/><marker id_skolky="4884" nazev_webovy="Z&#xE1;kladn&#xED; &#x161;kola, mate&#x159;sk&#xE1; &#x161;kola a praktick&#xE1; &#x161;kola Kol&#xED;n" ulice="Kutnohorsk&#xE1; 179" mesto="Kol&#xED;n" psc="28002" kraj="sc" lat="50.02655029296875" lng="15.20537948608398" tag="rejst&#x159;&#xED;kov&#xE1;" url_page="zakladni-skola-materska-skola-a-prakticka-skola-kolin-kutnohorska-179-kolin" typ_webovy_1="Ve&#x159;ejn&#xE1;" avg_hodnoceni=""/><marker id_skolky="4887" nazev_webovy="Z&#xE1;kladn&#xED; &#x161;kola, mate&#x159;sk&#xE1; &#x161;kola speci&#xE1;ln&#xED; a praktick&#xE1; &#x161;kola Jesenice" ulice="Plze&#x148;sk&#xE1; 63" mesto="Jesenice" psc="27033" kraj="sc" lat="50.09614562988281" lng="13.46974182128906" tag="rejst&#x159;&#xED;kov&#xE1;" url_page="zakladni-skola-materska-skola-specialni-a-prakticka-skola-jesenice-plzenska-63-jesenice" typ_webovy_1="Ve&#x159;ejn&#xE1;" avg_hodnoceni=""/><marker id_skolky="4888" nazev_webovy="Z&#xE1;kladn&#xED; &#x161;kola, mate&#x159;sk&#xE1; &#x161;kola speci&#xE1;ln&#xED;, d&#x11B;tsk&#xFD; domov Nymburk" ulice="Palack&#xE9;ho t&#x159;&#xED;da 515" mesto="Nymburk" psc="28802" kraj="sc" lat="50.19142913818359" lng="15.04382896423340" tag="rejst&#x159;&#xED;kov&#xE1;" url_page="zakladni-skola-materska-skola-specialni-detsky-domov-nymburk-palackeho-trida-515-nymburk" typ_webovy_1="Ve&#x159;ejn&#xE1;" avg_hodnoceni=""/><marker id_skolky="4889" nazev_webovy="Mate&#x159;sk&#xE1; &#x161;kola p&#x159;i nemocnici" ulice="Bo&#x17E;eny N&#x11B;mcov&#xE9; 452/10" mesto="Mlad&#xE1; Boleslav" psc="29301" kraj="sc" lat="50.41736602783203" lng="14.91018962860107" tag="rejst&#x159;&#xED;kov&#xE1;" url_page="materska-skola-pri-nemocnici-bozeny-nemcove-452-10-mlada-boleslav" typ_webovy_1="Ve&#x159;ejn&#xE1;" avg_hodnoceni=""/><marker id_skolky="5927" nazev_webovy="Mate&#x159;sk&#xE1; &#x161;kolka Zv&#xED;d&#xE1;lek" ulice="K Hork&#xE1;m 40" mesto="Praha 10 - Hostiva&#x159;" psc="10200" kraj="ph" lat="50.04468536376953" lng="14.51933574676514" tag="" url_page="materska-skolka-zvidalek-k-horkam-40-praha-10-hostivar" typ_webovy_1="Soukrom&#xE1;" typ_webovy_2="Jesle" avg_hodnoceni=""/><marker id_skolky="5282" nazev_webovy="Integra&#x10D;n&#xED; &#x161;koli&#x10D;ka Sm&#xED;&#x161;ek" ulice="Pe&#x161;lova 359/18" mesto="Praha 9 - Vyso&#x10D;any" psc="19000" kraj="ph" lat="50.11177444458008" lng="14.50137042999268" tag="" url_page="integracni-skolicka-smisek-peslova-359-18-praha-9-vysocany" typ_webovy_1="Soukrom&#xE1;" avg_hodnoceni=""/><marker id_skolky="6110" nazev_webovy="&#x160;koli&#x10D;ka S&#xC1;MOVKA" ulice="K&#x159;enova 15" mesto="Praha 6 - Pet&#x159;iny" psc="16000" kraj="ph" lat="50.08914947509766" lng="14.34374713897705" tag="" url_page="skolicka-samovka-krenova-15-praha-6-petriny" typ_webovy_1="Soukrom&#xE1;" avg_hodnoceni=""/><marker id_skolky="5358" nazev_webovy="Z&#xE1;kladn&#xED; &#x161;kola a Mate&#x159;sk&#xE1; &#x161;kola pro sluchov&#x11B; posti&#x17E;en&#xE9; Liberec" ulice="Eli&#x161;ky Kr&#xE1;snohorsk&#xE9; 921/22" mesto="Liberec 14" psc="46014" kraj="lb" lat="50.78424453735352" lng="15.07732772827148" tag="rejst&#x159;&#xED;kov&#xE1;" url_page="zakladni-skola-a-materska-skola-pro-sluchove-postizene-liberec-elisky-krasnohorske-921-22-liberec-14" typ_webovy_1="Ve&#x159;ejn&#xE1;" avg_hodnoceni=""/><marker id_skolky="5369" nazev_webovy="Mate&#x159;sk&#xE1; &#x161;kola speci&#xE1;ln&#xED; Jablonec nad Nisou" ulice="U P&#x159;ehrady 3196/4" mesto="Jablonec nad Nisou" psc="46601" kraj="lb" lat="50.73197937011719" lng="15.17331790924072" tag="rejst&#x159;&#xED;kov&#xE1;" url_page="materska-skola-specialni-jablonec-nad-nisou-u-prehrady-3196-4-jablonec-nad-nisou" typ_webovy_1="Ve&#x159;ejn&#xE1;" avg_hodnoceni=""/><marker id_skolky="5378" nazev_webovy="Mate&#x159;sk&#xE1; &#x161;kola, z&#xE1;kladn&#xED; &#x161;kola a praktick&#xE1; &#x161;kola &#x10C;B - Bo&#x17E;eny N&#x11B;mcov&#xE9;" ulice="Bo&#x17E;eny N&#x11B;mcov&#xE9; 54" mesto="&#x10C;esk&#xE9; Bud&#x11B;jovice" psc="37001" kraj="jc" lat="48.96046447753906" lng="14.47010803222656" tag="rejst&#x159;&#xED;kov&#xE1;" url_page="materska-skola-zakladni-skola-a-prakticka-skola-cb-bozeny-nemcove-bozeny-nemcove-54-ceske-budejovice" typ_webovy_1="Ve&#x159;ejn&#xE1;" avg_hodnoceni=""/><marker id_skolky="5408" nazev_webovy="Mate&#x159;sk&#xE1; &#x161;kola p&#x159;i fakultn&#xED; nemocnici Brno" ulice="&#x10C;ernopoln&#xED; 212/9" mesto="Brno" psc="61300" kraj="jm" lat="49.20370864868164" lng="16.61802291870117" tag="rejst&#x159;&#xED;kov&#xE1;" url_page="materska-skola-pri-fakultni-nemocnici-brno-cernopolni-212-9-brno" typ_webovy_1="Ve&#x159;ejn&#xE1;" avg_hodnoceni=""/><marker id_skolky="5409" nazev_webovy="Mate&#x159;sk&#xE1; &#x161;kola a z&#xE1;kladn&#xED; &#x161;kola Barvi&#x10D;ka" ulice="Barvi&#x10D;ova 45/54" mesto="Brno" psc="60200" kraj="jm" lat="49.19795989990234" lng="16.58079338073730" tag="rejst&#x159;&#xED;kov&#xE1;" url_page="materska-skola-a-zakladni-skola-barvicka-barvicova-45-54-brno" typ_webovy_1="Ve&#x159;ejn&#xE1;" avg_hodnoceni=""/><marker id_skolky="5410" nazev_webovy="Z&#xE1;kladn&#xED; a praktick&#xE1; &#x161;kola Hustope&#x10D;e" ulice="&#x160;afa&#x159;&#xED;kova 999/24" mesto="Hustope&#x10D;e" psc="69301" kraj="jm" lat="48.94506072998047" lng="16.73524284362793" tag="rejst&#x159;&#xED;kov&#xE1;" url_page="zakladni-a-prakticka-skola-hustopece-safarikova-999-24-hustopece" typ_webovy_1="Ve&#x159;ejn&#xE1;" avg_hodnoceni=""/><marker id_skolky="5411" nazev_webovy="Mate&#x159;sk&#xE1; &#x161;kola speci&#xE1;ln&#xED; Ibsenova" ulice="Ibsenova 797/1a" mesto="Brno" psc="63800" kraj="jm" lat="49.22964859008789" lng="16.61801147460938" tag="rejst&#x159;&#xED;kov&#xE1;" url_page="materska-skola-specialni-ibsenova-ibsenova-797-1a-brno" typ_webovy_1="Ve&#x159;ejn&#xE1;" avg_hodnoceni=""/><marker id_skolky="5412" nazev_webovy="Mate&#x159;sk&#xE1; &#x161;kola logopedick&#xE1; Rosice" ulice="Smetanova 964" mesto="Rosice" psc="66501" kraj="jm" lat="49.18153762817383" lng="16.39651489257812" tag="rejst&#x159;&#xED;kov&#xE1;" url_page="materska-skola-logopedicka-rosice-smetanova-964-rosice" typ_webovy_1="Ve&#x159;ejn&#xE1;" avg_hodnoceni="5.00000000"/><marker id_skolky="5413" nazev_webovy="Z&#xE1;kladn&#xED; &#x161;kola a mate&#x159;sk&#xE1; &#x161;kola logopedick&#xE1;" ulice="Vesla&#x159;sk&#xE1; 339/234" mesto="Brno - Kohoutovice" psc="63700" kraj="jm" lat="49.19646453857422" lng="16.56517219543457" tag="rejst&#x159;&#xED;kov&#xE1;" url_page="zakladni-skola-a-materska-skola-logopedicka-veslarska-339-234-brno-kohoutovice" typ_webovy_1="Ve&#x159;ejn&#xE1;" avg_hodnoceni=""/><marker id_skolky="5414" nazev_webovy="Mate&#x159;sk&#xE1; &#x161;kola p&#x159;i nemocnici Znojmo" ulice="Doktor Medic&#xED;ny Jana Jansk&#xE9;ho 2675/11" mesto="Znojmo" psc="66902" kraj="jm" lat="48.86944198608398" lng="16.05080223083496" tag="rejst&#x159;&#xED;kov&#xE1;" url_page="materska-skola-pri-nemocnici-znojmo-doktor-mediciny-jana-janskeho-2675-11-znojmo" typ_webovy_1="Ve&#x159;ejn&#xE1;" avg_hodnoceni="5.00000000"/><marker id_skolky="5447" nazev_webovy="Mate&#x159;sk&#xE1; &#x161;kola p&#x159;i nemocnici Chrudim" ulice="V&#xE1;clavsk&#xE1; 570" mesto="Chrudim" psc="53701" kraj="pb" lat="49.94226837158203" lng="15.80736064910889" tag="rejst&#x159;&#xED;kov&#xE1;" url_page="materska-skola-pri-nemocnici-chrudim-vaclavska-570-chrudim" typ_webovy_1="Ve&#x159;ejn&#xE1;" avg_hodnoceni=""/><marker id_skolky="5448" nazev_webovy="Mate&#x159;sk&#xE1; &#x161;kola p&#x159;i Psychiatrick&#xE9; nemocnici Havl&#xED;&#x10D;k&#x16F;v Brod" ulice="Rozko&#x161;sk&#xE1; 2329" mesto="Havl&#xED;&#x10D;k&#x16F;v Brod" psc="58001" kraj="vy" lat="49.61464309692383" lng="15.56103610992432" tag="rejst&#x159;&#xED;kov&#xE1;" url_page="materska-skola-pri-psychiatricke-nemocnici-havlickuv-brod-rozkosska-2329-havlickuv-brod" typ_webovy_1="Ve&#x159;ejn&#xE1;" avg_hodnoceni=""/><marker id_skolky="5449" nazev_webovy="Mate&#x159;sk&#xE1; &#x161;kola p&#x159;i nemocnici Nov&#xE9; M&#x11B;sto na Morav&#x11B;" ulice="&#x17D;&#x10F;&#xE1;rsk&#xE1; 603" mesto="Nov&#xE9; M&#x11B;sto na Morav&#x11B;" psc="59231" kraj="vy" lat="49.56162261962891" lng="16.06303405761719" tag="rejst&#x159;&#xED;kov&#xE1;" url_page="materska-skola-pri-nemocnici-nove-mesto-na-morave-zdarska-603-nove-mesto-na-morave" typ_webovy_1="Ve&#x159;ejn&#xE1;" avg_hodnoceni=""/><marker id_skolky="5450" nazev_webovy="Mate&#x159;sk&#xE1; &#x161;kola p&#x159;i nemocnici Pelh&#x159;imov" ulice="Slovansk&#xE9;ho Bratrstv&#xED; 710" mesto="Pelh&#x159;imov" psc="39301" kraj="vy" lat="49.43351364135742" lng="15.22984790802002" tag="rejst&#x159;&#xED;kov&#xE1;" url_page="materska-skola-pri-nemocnici-pelhrimov-slovanskeho-bratrstvi-710-pelhrimov" typ_webovy_1="Ve&#x159;ejn&#xE1;" avg_hodnoceni=""/><marker id_skolky="5451" nazev_webovy="Mate&#x159;sk&#xE1; &#x161;kola p&#x159;i nemocnici Jihlava" ulice="Vrchlick&#xE9;ho 4630/59" mesto="Jihlava" psc="58601" kraj="vy" lat="49.39759063720703" lng="15.57091236114502" tag="rejst&#x159;&#xED;kov&#xE1;" url_page="materska-skola-pri-nemocnici-jihlava-vrchlickeho-4630-59-jihlava" typ_webovy_1="Ve&#x159;ejn&#xE1;" avg_hodnoceni=""/><marker id_skolky="5452" nazev_webovy="Mate&#x159;sk&#xE1; &#x161;kola p&#x159;i nemocnici Havl&#xED;&#x10D;k&#x16F;v Brod" ulice="Husova 2120" mesto="Havl&#xED;&#x10D;k&#x16F;v Brod" psc="58001" kraj="vy" lat="49.60918045043945" lng="15.57219505310059" tag="rejst&#x159;&#xED;kov&#xE1;" url_page="materska-skola-pri-nemocnici-havlickuv-brod-husova-2120-havlickuv-brod" typ_webovy_1="Ve&#x159;ejn&#xE1;" avg_hodnoceni=""/><marker id_skolky="5465" nazev_webovy="D&#x11B;tsk&#xFD; sv&#x11B;t Kladruby" ulice="Kladruby 30" mesto="Kladruby" psc="34901" kraj="sc" lat="49.69477844238281" lng="12.91999435424805" tag="" url_page="detsky-svet-kladruby-kladruby-30-kladruby" typ_webovy_1="Soukrom&#xE1;" avg_hodnoceni=""/><marker id_skolky="5491" nazev_webovy="M&#x160; p&#x159;i nemocnici Kol&#xED;n" ulice="&#x17D;i&#x17E;kova 146" mesto="Kol&#xED;n" psc="28002" kraj="sc" lat="50.01959991455078" lng="15.19663906097412" tag="rejst&#x159;&#xED;kov&#xE1;" url_page="ms-pri-nemocnici-kolin-zizkova-146-kolin" typ_webovy_1="Ve&#x159;ejn&#xE1;" avg_hodnoceni=""/><marker id_skolky="5541" nazev_webovy="Odborn&#xE1; &#x161;kola, z&#xE1;kladn&#xED; &#x161;kola a mate&#x159;sk&#xE1; &#x161;kola Zb&#x16F;ch - Plze&#x148;" ulice="Mach&#xE1;&#x10D;kova 904/43" mesto="Plze&#x148; 3" psc="31800" kraj="pl" lat="49.74484252929688" lng="13.32612323760986" tag="rejst&#x159;&#xED;kov&#xE1;" url_page="odborna-skola-zakladni-skola-a-materska-skola-zbuch-plzen-machackova-904-43-plzen-3" typ_webovy_1="Krajsk&#xE1;" avg_hodnoceni=""/><marker id_skolky="5542" nazev_webovy="Mate&#x159;sk&#xE1; &#x161;kola pro zrakov&#x11B; posti&#x17E;en&#xE9; a vady &#x159;e&#x10D;i - Ke &#x160;pit&#xE1;lsk&#xE9;mu lesu" ulice="Ke &#x160;pit&#xE1;lsk&#xE9;mu lesu 1050/3" mesto="Plze&#x148; 4" psc="31200" kraj="pl" lat="49.74911880493164" lng="13.41981220245361" tag="rejst&#x159;&#xED;kov&#xE1;" url_page="materska-skola-pro-zrakove-postizene-a-vady-reci-ke-spitalskemu-lesu-ke-spitalskemu-lesu-1050-3-plzen-4" typ_webovy_1="Ve&#x159;ejn&#xE1;" avg_hodnoceni="4.83333333"/><marker id_skolky="5545" nazev_webovy="1. Mate&#x159;sk&#xE1; &#x161;kola p&#x159;i zdravotnick&#xE9;m za&#x159;&#xED;zen&#xED;" ulice="Ka&#x161;tanov&#xE1; 268" mesto="T&#x159;inec" psc="73961" kraj="ms" lat="49.67475509643555" lng="18.69071197509766" tag="rejst&#x159;&#xED;kov&#xE1;" url_page="1-materska-skola-pri-zdravotnickem-zarizeni-kastanova-268-trinec" typ_webovy_1="Ve&#x159;ejn&#xE1;" avg_hodnoceni=""/><marker id_skolky="5564" nazev_webovy="Mate&#x159;sk&#xE1; &#x161;kola p&#x159;i D&#x11B;tsk&#xE9;m centru Ostr&#x16F;vek" ulice="Mo&#x161;nerova 1" mesto="Olomouc" psc="77901" kraj="ol" lat="49.58127975463867" lng="17.23306083679199" tag="" url_page="materska-skola-pri-detskem-centru-ostruvek-mosnerova-1-olomouc" typ_webovy_1="Ve&#x159;ejn&#xE1;" avg_hodnoceni=""/><marker id_skolky="5565" nazev_webovy="Z&#xE1;kladn&#xED; &#x161;kola a Mate&#x159;sk&#xE1; &#x161;kola Hranice" ulice="Dvo&#x159;&#xE1;kovo stromo&#x159;ad&#xED; 1100" mesto="Hranice" psc="75301" kraj="ol" lat="49.53610992431641" lng="17.74356842041016" tag="" url_page="zakladni-skola-a-materska-skola-hranice-dvorakovo-stromoradi-1100-hranice" typ_webovy_1="Ve&#x159;ejn&#xE1;" avg_hodnoceni=""/><marker id_skolky="5567" nazev_webovy="Speci&#xE1;ln&#xED; Z&#xE1;kladn&#xED; &#x161;kola a Speci&#xE1;ln&#xED; Mate&#x159;sk&#xE1; &#x161;kola D&#x11B;&#x10D;&#xED;n" ulice="U nemocnice 2" mesto="D&#x11B;&#x10D;&#xED;n II" psc="40502" kraj="ul" lat="50.78096771240234" lng="14.22410488128662" tag="rejst&#x159;&#xED;kov&#xE1;" url_page="specialni-zakladni-skola-a-specialni-materska-skola-decin-u-nemocnice-2-decin-ii" typ_webovy_1="Ve&#x159;ejn&#xE1;" avg_hodnoceni=""/><marker id_skolky="5568" nazev_webovy="Mate&#x159;sk&#xE1; &#x161;kola p&#x159;i zdravotnick&#xE9;m za&#x159;&#xED;zen&#xED; Rumburk" ulice="U Nemocnice 1298/6" mesto="Rumburk" psc="40801" kraj="ul" lat="50.94871520996094" lng="14.54748344421387" tag="rejst&#x159;&#xED;kov&#xE1;" url_page="materska-skola-pri-zdravotnickem-zarizeni-rumburk-u-nemocnice-1298-6-rumburk" typ_webovy_1="Ve&#x159;ejn&#xE1;" avg_hodnoceni=""/><marker id_skolky="5572" nazev_webovy="D&#x11B;tsk&#xE9; studio Poh&#xE1;dka" ulice="Bobkova 777/2" mesto="Praha 14 - &#x10C;ern&#xFD; most" psc="19800" kraj="ph" lat="50.10647964477539" lng="14.58045673370361" tag="" url_page="detske-studio-pohadka-bobkova-777-2-praha-14-cerny-most" typ_webovy_1="Soukrom&#xE1;" avg_hodnoceni=""/><marker id_skolky="5573" nazev_webovy="Speci&#xE1;ln&#xED; mate&#x159;sk&#xE1; &#x161;kola Sev&#x159;en&#xE1; - Jedli&#x10D;k&#x16F;v &#xFA;stav" ulice="Sev&#x159;en&#xE1; 1770/12" mesto="Praha 4" psc="14000" kraj="ph" lat="50.05478286743164" lng="14.43742942810059" tag="rejst&#x159;&#xED;kov&#xE1;" url_page="specialni-materska-skola-sevrena-jedlickuv-ustav-sevrena-1770-12-praha-4" typ_webovy_1="Ve&#x159;ejn&#xE1;" avg_hodnoceni=""/><marker id_skolky="5604" nazev_webovy="Speci&#xE1;ln&#xED; Mate&#x159;sk&#xE1; &#x161;kola a jesle Srd&#xED;&#x10D;ko" ulice="Revolu&#x10D;n&#xED; 1845/30" mesto="Litom&#x11B;&#x159;ice" psc="41201" kraj="sc" lat="50.54518508911133" lng="14.12747955322266" tag="" url_page="specialni-materska-skola-a-jesle-srdicko-revolucni-1845-30-litomerice" typ_webovy_1="Ve&#x159;ejn&#xE1;" typ_webovy_2="Jesle" avg_hodnoceni="5.00000000"/><marker id_skolky="5668" nazev_webovy="Mate&#x159;sk&#xE1; &#x161;kola &#x158;ez&#xE1;&#x10D;ova - &#x160;koli&#x10D;ka u Lesa" ulice="&#x158;ez&#xE1;&#x10D;ova 3/804" mesto="Brno" psc="62400" kraj="jm" lat="49.22397994995117" lng="16.55776405334473" tag="rejst&#x159;&#xED;kov&#xE1;" url_page="materska-skola-rezacova-skolicka-u-lesa-rezacova-3-804-brno" typ_webovy_1="Ve&#x159;ejn&#xE1;" avg_hodnoceni=""/><marker id_skolky="5715" nazev_webovy="Mate&#x159;sk&#xE1; &#x161;kola Poh&#xE1;dka Brno" ulice="Brat&#x159;&#xED; Pel&#xED;&#x161;k&#x16F; 7" mesto="Brno" psc="62800" kraj="jm" lat="49.20170593261719" lng="16.69599533081055" tag="rejst&#x159;&#xED;kov&#xE1;" url_page="materska-skola-pohadka-brno-bratri-pelisku-7-brno" typ_webovy_1="Ve&#x159;ejn&#xE1;" avg_hodnoceni="5.00000000"/><marker id_skolky="5753" nazev_webovy="Z&#xE1;kladn&#xED; &#x161;kola, Mate&#x159;sk&#xE1; &#x161;kola a D&#x11B;tsk&#xFD; domov Z&#xE1;b&#x159;eh" ulice="Su&#x161;ilova 40" mesto="Z&#xE1;b&#x159;eh" psc="78901" kraj="ol" lat="49.88728332519531" lng="16.86818313598633" tag="rejst&#x159;&#xED;kov&#xE1;" url_page="zakladni-skola-materska-skola-a-detsky-domov-zabreh-susilova-40-zabreh" typ_webovy_1="Ve&#x159;ejn&#xE1;" avg_hodnoceni=""/><marker id_skolky="5754" nazev_webovy="Z&#x160; a M&#x160; Ka&#x148;ka" ulice="Helsinsk&#xE1; 2731" mesto="T&#xE1;bor" psc="39005" kraj="jc" lat="49.38773345947266" lng="14.68868160247803" tag="rejst&#x159;&#xED;kov&#xE1;" url_page="zs-a-ms-kanka-helsinska-2731-tabor" typ_webovy_1="Soukrom&#xE1;" avg_hodnoceni="5.00000000"/><marker id_skolky="5802" nazev_webovy="Z&#x160; a M&#x160; prof. V. Vejdovsk&#xE9;ho pro zrakov&#x11B; posti&#x17E;en&#xE9;" ulice="Tomkova 42" mesto="Olomouc" psc="77900" kraj="ol" lat="49.60326004028320" lng="17.23847579956055" tag="rejst&#x159;&#xED;kov&#xE1;" url_page="zs-a-ms-prof-v-vejdovskeho-pro-zrakove-postizene-tomkova-42-olomouc" typ_webovy_1="Ve&#x159;ejn&#xE1;" avg_hodnoceni=""/><marker id_skolky="5889" nazev_webovy="M&#x160; Srd&#xED;&#x10D;ko" ulice="Bezru&#x10D;ova 752" mesto="Jirkov" psc="43111" kraj="ul" lat="50.49657440185547" lng="13.44444084167480" tag="" url_page="ms-srdicko-bezrucova-752-jirkov" typ_webovy_1="M&#x11B;stsk&#xE1;" avg_hodnoceni="5.00000000"/><marker id_skolky="5921" nazev_webovy="&#x160;koli&#x10D;ka Alma Klecany" ulice="Do Klec&#xE1;nek 133" mesto="Klecany" psc="25067" kraj="sc" lat="50.17714309692383" lng="14.41730022430420" tag="" url_page="skolicka-alma-klecany-do-klecanek-133-klecany" typ_webovy_1="Soukrom&#xE1;" avg_hodnoceni=""/><marker id_skolky="5997" nazev_webovy="Mate&#x159;sk&#xE1; &#x161;kola speci&#xE1;ln&#xED;" ulice="Horova 654" mesto="Karvin&#xE1;" psc="73401" kraj="ms" lat="49.85212707519531" lng="18.56062507629395" tag="rejst&#x159;&#xED;kov&#xE1;" url_page="materska-skola-specialni-horova-654-karvina" typ_webovy_1="C&#xED;rkevn&#xED;" avg_hodnoceni="4.33333333"/><marker id_skolky="6044" nazev_webovy="Florentinum - Britsk&#xE1; &#x161;kolka a jesle" ulice="Na Florenci 2116/15" mesto="Praha 1 - Nov&#xE9; M&#x11B;sto" psc="11000" kraj="ph" lat="50.08866882324219" lng="14.43555068969727" tag="rejst&#x159;&#xED;kov&#xE1;" url_page="florentinum-britska-skolka-a-jesle-na-florenci-2116-15-praha-nove-mesto" typ_webovy_1="Soukrom&#xE1;" typ_webovy_2="Jesle" avg_hodnoceni="5.00000000"/><marker id_skolky="6151" nazev_webovy="CPD Vodn&#xED;&#x10D;ek" ulice="Vltavan&#x16F; 229" mesto="Praha 4 - Bran&#xED;k" psc="14200" kraj="ph" lat="50.02824020385742" lng="14.40363979339600" tag="" url_page="cpd-vodnicek-vltavanu-229-praha-4-branik" typ_webovy_1="CPD" avg_hodnoceni=""/><marker id_skolky="6156" nazev_webovy="Logodr&#xE1;&#x10D;ek s. r. o." ulice="Novovesk&#xE1; 322/5" mesto="Praha 5 - Jinonice" psc="15800" kraj="ph" lat="50.04835128784180" lng="14.36308002471924" tag="" url_page="logodracek-s-r-o-novoveska-322-5-praha-5-jinonice" typ_webovy_1="Soukrom&#xE1;" avg_hodnoceni=""/></markers>

